School Name,BoroughCode,Geographical District,Project Description,Construction Award,Project type,Building ID,Building Address,City,Postcode,Borough,Latitude,Longitude,Community Board,Council District,BIN,BBL,Census Tract (2020),Neighborhood Tabulation Area (NTA) (2020),Location 1
MURRAY HILL ACADEMY HS - M,M,2,CHARTER MATCH INTERIOR SPACES,407000,CIP,M620,111 EAST 33 STREET,Manhattan,10016,MANHATTAN,40.746176,-73.981241,105,4,1087537,1008897501,72,MN0603,"(40.746176, -73.981241)"
P.S. 153 - QUEENS,Q,24,PA SYSTEM REPLACEMENT,989999,CIP,Q153,60-02 60 LANE,Queens,11378,QUEENS,40.716609,-73.903669,405,30,4060987,4027320018,599,QN0501,"(40.716609, -73.903669)"
CHANNEL VIEW SCL FOR RESEARCH - Q,Q,27,TENNIS COURT REMEDIATION,4362000,CIP,Q411,100-00 BEACH CHANNEL DRIVE,Queens,11694,QUEENS,40.586066,-73.822624,414,32,4303773,4161670099,94201,QN1402,"(40.586066, -73.822624)"
P.S. 79 - QUEENS,Q,25,PLANYC BOILER CONVERSION / PLANYC CLIMATE CONTROL,7872000,CIP,Q079,147-27 15 DRIVE,Queens,11357,QUEENS,40.785909,-73.818058,407,19,4105232,4046470001,1039,QN0702,"(40.785909, -73.818058)"
I.S. 77 - QUEENS,Q,24,EXTERIOR MASONRY / FLOOD ELIMINATION / PARAPETS / ROOFS / WINDOWS,23400000,CIP,Q849,976 SENECA AVENUE,Queens,11385,QUEENS,40.699516,-73.90214,405,34,4085922,4035630023,555,QN0502,"(40.699516, -73.90214)"
P.S. 13 ANNEX - STATEN ISLAND,R,31,Demo,2389000,CAP,R122,1 VIRGINIA AVENUE,Staten Is,10305,STATEN IS,40.615517,-74.06755,501,49,5042681,5028470086,8,SI0103,"(40.615517, -74.06755)"
P.S. 304 - BRONX,X,8,PLANYC BOILER CONVERSION / PLANYC CLIMATE CONTROL,6630000,CIP,X101,2750 LAFAYETTE AVENUE,Bronx,10465,BRONX,40.827471,-73.829753,210,13,2080231,2055470001,152,BX1002,"(40.827471, -73.829753)"
P.S. 239 - QUEENS,Q,24,CLIMATE CONTROL / FIRE ALARM SYSTEM REPLACEMENT / HVAC COOLING SYSTEM REPLACEMENT,7760000,CIP,Q239,17-15 WEIRFIELD STREET,Queens,11385,QUEENS,40.699149,-73.903799,405,34,4435561,4035610001,553,QN0502,"(40.699149, -73.903799)"
P.S. 63 - QUEENS,Q,27,LSP DOMESTIC WATER HEATER REPLACEMENT,175157.82,CIP,Q063,90-15 SUTTER AVENUE,Queens,11417,QUEENS,40.67641,-73.846773,410,32,4190727,4091550025,54,QN1002,"(40.67641, -73.846773)"
I.S. 303 - BRONX,X,9,FY23 RESO A LIBRARY UPGRADE,216000,CIP,X082,1700 MACOMBS ROAD,Bronx,10453,BRONX,40.849532,-73.916077,205,14,2008460,2028660070,21502,BX0501,"(40.849532, -73.916077)"
WILLIAM MAXWELL VOC HS - K,K,19,FY23 RESO A GYMNASIUM UPGRADE,56000,CIP,K660,145 PENNSYLVANIA AVENUE,Brooklyn,11207,BROOKLYN,40.674135,-73.89643,305,37,3083660,3037040001,1144,BK0502,"(40.674135, -73.89643)"
P.S. 86 - BROOKLYN,K,32,FY21 RESO A ROOM CONVERSION / PATH OF TRAVEL RESO A ROOM CONVERSION,388400,CIP,K086,220 IRVING AVENUE,Brooklyn,11237,BROOKLYN,40.700774,-73.91748,304,37,3075109,3032890027,431,BK0401,"(40.700774, -73.91748)"
P.S. 184 - QUEENS,Q,25,FY21 RESO A PLAYGROUND UPGRADE,766000,CIP,Q184,163-15 21 ROAD,Queens,11357,QUEENS,40.778095,-73.800163,407,19,4129072,4057560001,1017,QN0703,"(40.778095, -73.800163)"
P.S. 705 - BROOKLYN,K,17,PARAPETS / ROOFS,5303380,CIP,K022,443 ST MARKS AVENUE,Brooklyn,11238,BROOKLYN,40.676774,-73.960058,308,35,3028281,3011480050,305,BK0802,"(40.676774, -73.960058)"
P.S. 158 - MANHATTAN,M,2,COVID FIRE ALARM SYSTEM / COVID VENTILATION,2497000,CIP,M158,1458 YORK AVENUE,Manhattan,10075,MANHATTAN,40.770419,-73.951135,108,5,1046411,1014890001,13202,MN0801,"(40.770419, -73.951135)"
HERBERT H. LEHMAN HS - X,X,8,AUDITORIUM UP0GRADE,1050000,CIP,X405,3000 EAST TREMONT AVENUE,Bronx,10461,BRONX,40.840733,-73.838685,210,13,2074045,2053680001,194,BX1002,"(40.840733, -73.838685)"
SECONDARY SCHOOL FOR LAW - K,K,15,MASONRY,2997786,CIP,K460,237 7 AVENUE,Brooklyn,11215,BROOKLYN,40.669629,-73.979287,306,39,3025510,3010820001,155,BK0602,"(40.669629, -73.979287)"
NEWTOWN HS - QUEENS,Q,24,"CEILING ACOUSTAL TILES REPLACEMENT / EXTERIOR MASONRY / FIRE ALARM SYSTEM / ROOF SLATE TILES / ROOFS / VENTILATION / WATER PENETRATION IN BOILER, GAS ROOM, 
OIL TANK ROOM, CELLAR HALLWAY",40922300,CIP,Q455,48-01 90 STREET,Queens,11373,QUEENS,40.741122,-73.874721,404,25,4045629,4018490001,461,QN0401,"(40.741122, -73.874721)"
P.S. 22 - STATEN ISLAND,R,31,EXTERIOR MASONRY / FLOOD ELIMINATION / PARAPETS / ROOFS,9941961.29,CIP,R022,1860 FOREST AVENUE,Staten Island,10303,STATEN IS,40.625369,-74.15097,501,49,5107239,5017060001,30302,SI0107,"(40.625369, -74.15097)"
JAMES MADISON HS - BROOKLYN,K,22,COVID VENTILATION,11445000,CIP,K425,3787 BEDFORD AVENUE,Brooklyn,11229,BROOKLYN,40.609912,-73.948512,315,48,3182721,3067880001,642,BK1502,"(40.609912, -73.948512)"
P.S. 62 - QUEENS,Q,27,LSP DOMESTIC WATER HEATER REPLACEMENT,148607.82,CIP,Q062,97-25 108 STREET,Queens,11419,QUEENS,40.688577,-73.836162,409,29,4197909,4094100001,110,QN0903,"(40.688577, -73.836162)"
X352 SPED - BRONX,X,12,IPDVS INSTALLATIONS,603000,CIP,X092,700 EAST 179 STREET,Bronx,10457,BRONX,40.846711,-73.889815,206,15,2012620,2030920014,371,BX0602,"(40.846711, -73.889815)"
P.S. 236 - BROOKLYN,K,22,ELECTRICAL WORK FOR A/C INITIATIVE / LL26 CODE COMPLIANCE/EXIT SIGN REPLACEMENT,10824,CIP,K236,6302 AVENUE U,Brooklyn,11234,BROOKLYN,40.615998,-73.912989,318,46,3326821,3084640001,698,BK1802,"(40.615998, -73.912989)"
Q811 SPED - QUEENS,Q,29,EXTERIOR MASONRY / PARAPETS / ROOF REPLACEMENT / ROOFS,6497423,CIP,Q851,218-01 116 AVENUE,Queens,11411,QUEENS,40.697309,-73.740948,413,27,4243743,4113000001,598,QN1304,"(40.697309, -73.740948)"
HS FOR HEALTH CAREER & SCIENCE - M,M,6,EXTERIOR MASONRY / PARAPETS / ROOFS / WINDOWS,37627000,CIP,M465,549 AUDUBON AVENUE,Manhattan,10040,MANHATTAN,40.855855,-73.92712,112,10,1076751,1021600018,277,MN1202,"(40.855855, -73.92712)"
P.S. 160 - BRONX,X,11,LSP HOT WATER TANK IN BOILER ROOM,135000,CIP,X160,4140 HUTCHINSON RIVER PARKWAY EAST,Bronx,10475,BRONX,40.864687,-73.824299,210,12,2072352,2051350200,30201,BX1004,"(40.864687, -73.824299)"
P.S. 20 - BRONX,X,10,LSP DOMESTIC WATER HEATER REPLACEMENT,68401,CIP,X020,3050 WEBSTER AVENUE,Bronx,10467,BRONX,40.870002,-73.878875,207,11,2086851,2033300001,425,BX0703,"(40.870002, -73.878875)"
P.S. 184 - MANHATTAN,M,1,COVID FIRE ALARM REPLACEMENT / COVID VENTILATION / FY18 RESO A ELECTRICAL SYSTEMS,622000,CIP,M137,327 CHERRY STREET,Manhattan,10002,MANHATTAN,40.711549,-73.986542,103,1,1003143,1002450007,201,MN0301,"(40.711549, -73.986542)"
P.S. 214 - BROOKLYN,K,19,AUDITORIUM SEATING / FULL PROGRAM ACCESSIBILITY / LOW VOLTAGE ELECTRICAL SYSTEMS,15400000,CIP,K214,2944 PITKIN AVENUE,Brooklyn,11208,BROOKLYN,40.676513,-73.863151,305,37,3095254,3042430001,1202,BK0505,"(40.676513, -73.863151)"
CURTIS HS - STATEN ISLAND,R,31,COVID VENTILATION,3628000,CIP,R450,105 HAMILTON AVENUE,Staten Island,10301,STATEN IS,40.644735,-74.081222,501,49,5106483,5000220001,7,SI0101,"(40.644735, -74.081222)"
I.S. @ 4002 FORT HAMILTON PARKWAY - BROOKLYN,K,15,Demo,7888000,CAP,K004,4002 FORT HAMILTON PARKWAY,Brooklyn,11218,BROOKLYN,40.642614,-73.991338,312,38,3000000,3055870038,110,BK1201,"(40.642614, -73.991338)"
P.S. 203 - QUEENS,Q,26,PLANYC BOILER CONVERSION / PLANYC CLIMATE CONTROL,6575000,CIP,Q203,53-11 SPRINGFIELD BOULEVARD,Queens,11364,QUEENS,40.754201,-73.760636,411,23,4161005,4074820317,138501,QN1102,"(40.754201, -73.760636)"
SCHOOL FOR COOPERATIVE TECHNICAL EDUCATION,M,4,ELECTRICAL WORK FOR A/C INITIATIVE,10495.01,CIP,M646,321 EAST 96 STREET,Manhattan,10128,MANHATTAN,40.783638,-73.945626,111,8,1083927,1016680001,15602,MN1101,"(40.783638, -73.945626)"
P.S. 98 - QUEENS,Q,26,FY20 RESO A SUPPLEMENTAL COOLING,410000,CIP,Q098,40-20 235 STREET,Queens,11363,QUEENS,40.769271,-73.749369,411,19,4168629,4080820285,1483,QN1103,"(40.769271, -73.749369)"
P.S. 5 - BROOKLYN,K,16,ELECTRICAL SYSTEMS / LOW VOLTAGE ELECTRICAL SYSTEM / PLANYC BOILER CONVERSION / PLANYC CLIMATE CONTROL,16795000,CIP,K005,820 HANCOCK STREET,Brooklyn,11233,BROOKLYN,40.685687,-73.922532,303,41,3039906,3014900001,377,BK0302,"(40.685687, -73.922532)"
WORLD CULTURES HS - X,X,12,PATH OF TRAVEL SWIMMING POOL / SWIMMING POOL,10111000,CIP,X420,1300 BOYNTON AVENUE,Bronx,10472,BRONX,40.831601,-73.878912,209,17,2027459,2038640001,56,BX0901,"(40.831601, -73.878912)"
P.S. 165 - MANHATTAN,M,3,LSP GYMNASIUM FLOOR,104377,CIP,M165,234 WEST 109 STREET,Manhattan,10025,MANHATTAN,40.802917,-73.965613,107,7,1056676,1018800013,195,MN0703,"(40.802917, -73.965613)"
TELECOM. ARTS & TECH. HS - K,K,20,LSP REPLACE BURNER CONTROLS,53000,CIP,K485,350 67 STREET,Brooklyn,11220,BROOKLYN,40.637282,-74.023849,310,47,3144482,3058500030,70,BK1001,"(40.637282, -74.023849)"
LOWER EAST SIDE PREP HS - M,M,1,IPDVS CAMERA INSTALLATION,449000,CIP,M025,145 STANTON STREET,Manhattan,10002,MANHATTAN,40.720581,-73.985645,103,1,1004323,1003540080,3001,MN0302,"(40.720581, -73.985645)"
LONGWOOD PREPARATORY ACADEMY,X,8,FLOOD ELIMINATION,1579599,CIP,X039,965 LONGWOOD AVENUE,Bronx,10459,BRONX,40.817512,-73.898212,202,17,2005616,2027100001,87,BX0202,"(40.817512, -73.898212)"
P.S. 138 - BROOKLYN,K,17,FIRE SPRINKLER,7216,CIP,K138,760 PROSPECT PLACE,Brooklyn,11216,BROOKLYN,40.67438,-73.951443,308,36,3330794,3012330026,31701,BK0802,"(40.67438, -73.951443)"
INNOVATION DIPLOMA PLUS,M,3,CLIMATE CONTROL / LOW VOLTAGE ELECTRICAL SYSTEM / VENTILATION,11221212,CIP,M470,145 WEST 84 STREET,Manhattan,10024,MANHATTAN,40.785803,-73.974614,107,6,1032128,1012150001,169,MN0702,"(40.785803, -73.974614)"
P.S. 18 - QUEENS,Q,26,PLANYC BOILER CONVERSION / PLANYC CLIMATE CONTROL,6420000,CIP,Q018,86-35 235 COURT,Queens,11427,QUEENS,40.732112,-73.73246,413,23,4166561,4079550002,1621,QN1302,"(40.732112, -73.73246)"
J.H.S. 189 - QUEENS,Q,25,LOW VOLTAGE ELECTRICAL SYSTEM,900000,CIP,Q189,144-80 BARCLAY AVENUE,Queens,11355,QUEENS,40.759844,-73.820548,407,20,4114763,4050510027,863,QN0704,"(40.759844, -73.820548)"
P.S. 70 - BRONX,X,9,STH SBHC,3250000,CIP,X070,1691 WEEKS AVENUE,Bronx,10457,BRONX,40.844253,-73.907616,204,15,2007387,2027930028,22902,BX0403,"(40.844253, -73.907616)"
P.S. 48 - BROOKLYN,K,20,PATH OF TRAVEL PLAYGROUND UPGRADE / PLAYGROUNDS,1600000,CIP,K048,6015 18 AVENUE,Brooklyn,11204,BROOKLYN,40.621871,-73.987396,312,44,3132140,3055190001,244,BK1204,"(40.621871, -73.987396)"
P.S. 117 - QUEENS,Q,28,LSP DOMESTIC WATER HEATER,84450,CIP,Q117,85-15 143RD STREET,Queens,11435,QUEENS,40.709463,-73.813376,408,24,4208040,4097230150,232,QN0805,"(40.709463, -73.813376)"
P.S. 150 - QUEENS,Q,30,LSP DOMESTIC WATER HEATER,255944.76,CIP,Q150,40-01 43 AVENUE,Queens,11104,QUEENS,40.745537,-73.923776,402,26,4002387,4001850001,18101,QN0202,"(40.745537, -73.923776)"
P.S. 194 - BROOKLYN,K,22,FULL PROGRAM ACCESSIBILITY,10990000,CIP,K194,3117 AVENUE W,Brooklyn,11229,BROOKLYN,40.596757,-73.933499,315,46,3201629,3073930001,570,BK1503,"(40.596757, -73.933499)"
I.S. 278 - BROOKLYN,K,22,EXTERIOR MASONRY / ROOFS,1868000,CIP,K278,1925 STUART STREET,Brooklyn,11229,BROOKLYN,40.60665,-73.939176,315,46,3239889,3084960100,666,BK1891,"(40.60665, -73.939176)"
I.S. 529 - BRONX,X,11,EXTERIOR MASONRY / PARAPETS / ROOFS / WINDOWS,26900000,CIP,X142,3750 BAYCHESTER AVENUE,Bronx,10466,BRONX,40.884953,-73.840524,212,12,2066190,2049350001,48402,BX1202,"(40.884953, -73.840524)"
THE LONGWOOD ACADEMY OF DISCOVERY - X,X,8,LSP LL26 CODE COMPLIANCE/EXIT SIGN REPLACEMENT,42000,CIP,X060,888 REV. J.A. POLITE AVENUE,Bronx,10459,BRONX,40.820403,-73.898912,202,17,2005348,2026960085,87,BX0202,"(40.820403, -73.898912)"
P.S. 329 - BROOKLYN,K,21,IPDVS INSTALLATIONS,378850,CIP,K329,2929 WEST 30 STREET,Brooklyn,11224,BROOKLYN,40.574607,-73.996292,313,47,3189517,3070510001,342,BK1302,"(40.574607, -73.996292)"
P.S. 160 - QUEENS,Q,28,EXISTING BUILDING WORK- ELECTRICAL SYSTEMS / EXISTING BUILDING WORK-IPDVS,2233609.2,CIP,Q160,109-59 INWOOD STREET,Queens,11435,QUEENS,40.688103,-73.800415,412,28,4258143,4119420302,196,QN1202,"(40.688103, -73.800415)"
FREDERICK DOUGLASS ACADEMY III SECONDARY SCHOOL,X,9,FLOOD ELIMINATION,791275,CIP,X148,3630 THIRD AVENUE,Bronx,10456,BRONX,40.833511,-73.90449,203,16,2009611,2029250001,14701,BX0302,"(40.833511, -73.90449)"
P.S. 206 - BROOKLYN,K,22,Addition,59600000,CAP,K206,2200 GRAVESEND NECK ROAD,Brooklyn,11229,BROOKLYN,40.597369,-73.948946,315,48,3201080,3073810201,59403,BK1503,"(40.597369, -73.948946)"
QUEENS SATELLITE HS FOR OPPORTUNITY - Q,Q,28,IPDVS INSTALLATIONS,540000,CIP,Q595,162-02 HILLSIDE AVENUE,Queens,11432,QUEENS,40.70848,-73.800065,412,24,4209031,4097680022,44602,QN1201,"(40.70848, -73.800065)"
THE HERITAGE SCHOOL - MANHATTAN,M,4,IPDVS INSTALLATIONS,495000,CIP,M107,1680 LEXINGTON AVENUE,Manhattan,10029,MANHATTAN,40.791881,-73.946558,111,8,1051991,1016330013,172,MN1101,"(40.791881, -73.946558)"
P.S. 54 - BROOKLYN,K,13,FLOOD ELIMINATION,1235100,CIP,K054,195 SANDFORD STREET,Brooklyn,11205,BROOKLYN,40.692741,-73.952981,303,33,3049020,3017650015,241,BK0301,"(40.692741, -73.952981)"
I.S. 234 - BROOKLYN,K,22,INTERIOR SPACES,2740580,CIP,K234,1875 EAST 17 STREET,Brooklyn,11229,BROOKLYN,40.60422,-73.955485,315,48,3184057,3068210244,558,BK1502,"(40.60422, -73.955485)"
P.S. 295 - BROOKLYN,K,15,CAFETERIA/GYMNASIUM FLOOR SUBSTRATE / CLASSROOMS & CORRIDOR FLOORS / EXTERIOR MASONRY / FLOOD ELIMINATION / FY13 RESO A GYMNASIUM UPGRADE / GYMNASIUM FLOOR / PARAPETS / ROOFS,9114000,CIP,K845,330 18 STREET,Brooklyn,11215,BROOKLYN,40.660976,-73.988297,307,39,3331274,3008800001,147,BK0702,"(40.660976, -73.988297)"
AVIATION HS - QUEENS,Q,24,TEMPORARY FILTER WORK,279406,CIP,Q610,45-30 36 STREET,Queens,11101,QUEENS,40.743509,-73.929076,402,26,4436685,4002260001,17902,QN0202,"(40.743509, -73.929076)"
WADLEIGH SECONDARY SCHOOL FOR THE PERFORMING & VIS,M,3,BMS UPGRADE / CHILLER REPLACEMENT / FIRE ALARM REPLACEMENT,15766000,CIP,M088,215 WEST 114 STREET,Manhattan,10026,MANHATTAN,40.802207,-73.954142,110,9,1055204,1018300019,218,MN1001,"(40.802207, -73.954142)"
P.S. 89 - QUEENS,Q,24,LSP DOMESTIC WATER HEATER,195000,CIP,Q089,85-28 BRITTON AVENUE,Queens,11373,QUEENS,40.745923,-73.880205,404,25,4037370,4015140001,27101,QN0401,"(40.745923, -73.880205)"
MANHTN CT FOR MATH & SCI. HS - M,M,4,RPZ BACKFLOW PREVENTION DEVICES,747000,CIP,M435,260 PLEASANT AVENUE,Manhattan,10029,MANHATTAN,40.793856,-73.934028,111,8,1053152,1017130001,178,MN1102,"(40.793856, -73.934028)"
P.S. 46 - QUEENS,Q,26,WORK IN EXISTING BUILDING,6795900,CIP,Q046,64-29 218 STREET,Queens,11364,QUEENS,40.74621,-73.758756,411,23,4620806,4076190001,1367,QN1104,"(40.74621, -73.758756)"
I.S. 265 - BROOKLYN,K,13,EXTERIOR MASONRY / PARAPETS / ROOFS,10301778,CIP,K265,101 PARK AVENUE,Brooklyn,11205,BROOKLYN,40.696324,-73.97578,302,35,3057942,3020280001,211,BK0203,"(40.696324, -73.97578)"
I.S. 109 - QUEENS,Q,29,EXTERIOR MASONRY / FLOOD ELIMINATION / ROOFS / WINDOWS,12400000,CIP,Q109,213-10 92 AVENUE,Queens,11428,QUEENS,40.720713,-73.747001,413,23,4226839,4106260001,542,QN1303,"(40.720713, -73.747001)"
P.S. 446 - BROOKLYN,K,23,COVID VENTILATION,4195000,CIP,K183,76 RIVERDALE AVENUE,Brooklyn,11212,BROOKLYN,40.660204,-73.913933,316,41,3082253,3035970011,896,BK1602,"(40.660204, -73.913933)"
P.S. 29 - QUEENS,Q,25,FLOOD ELIMINATION,8523000,CIP,Q029,125-10 23 AVENUE,Queens,11356,QUEENS,40.778601,-73.843187,407,19,4099925,4042290014,907,QN0701,"(40.778601, -73.843187)"
P.S. 110 - BRONX,X,9,EXTERIOR MASONRY / FIRE ALARM / FULL PROGRAM ACCESSIBILITY / PARAPETS,14690000,CIP,X110,580 CROTONA PARK SOUTH,Bronx,10456,BRONX,40.835286,-73.900751,203,15,2009718,2029320001,149,BX0301,"(40.835286, -73.900751)"
GROVER CLEVELAND HS - QUEENS,Q,24,EXTERIOR DOORS / EXTERIOR MASONRY,2979000,CIP,Q485,21-27 HIMROD STREET,Queens,11385,QUEENS,40.711033,-73.908814,405,30,4080227,4033630001,59501,QN0502,"(40.711033, -73.908814)"
JOHN DEWEY ANNEX - BROOKLYN,K,21,Demo,2184709,CAP,K358,106 AVENUE X,Brooklyn,,,,,,,,,,,
I.S. 151 - BRONX,X,7,IPDVS CAMERA INSTALLATION,495000,CIP,X151,250 EAST 156 STREET,Bronx,10451,BRONX,40.823033,-73.921238,204,16,2002458,2024430190,61,BX0401,"(40.823033, -73.921238)"
BUSHWICK LEADERS - K,K,32,CERTIFICATE OF OCCUPANCY / FIRE SPRINKLER SYSTEM,13088000,CIP,K865,797 BUSHWICK AVENUE,Brooklyn,11221,BROOKLYN,40.695056,-73.92814,304,34,3073761,3032420001,393,BK0401,"(40.695056, -73.92814)"
SUCCESS ACADEMY CHARTER SCHOOL - BERGEN BEACH - NE,K,22,IPDVS CAMERA INSTALLATION,528000,CIP,K864,3109 NEWKIRK AVENUE,Brooklyn,11226,BROOKLYN,40.640066,-73.947253,317,45,3112334,3049650001,830,BK1702,"(40.640066, -73.947253)"
P.S. 85 ANNEX - QUEENS,Q,30,New,56350000,CAP,Q489,23-35 29 STREET,Queens,11105,QUEENS,40.774348,-73.91471,401,22,,,115,QN0101,"(40.774348, -73.91471)"
I.S. 241 - BRONX,X,9,IPDVS FULL CAMERA UPGRADE / IPDVS INSTALLATION,337000,CIP,X970,1595 BATHGATE AVENUE,Bronx,10457,BRONX,40.839244,-73.901316,203,15,2009555,2029130001,167,BX0302,"(40.839244, -73.901316)"
P.S. 225 - MANHATTAN,M,2,FY23 RESO A LOCKER ROOM UPGRADE / PATH OF TRAVEL RESO A LOCKER ROOM UPGRADE,2470000,CIP,M480,317 EAST 67 STREET,Manhattan,10065,MANHATTAN,40.765359,-73.960059,108,5,1083343,1014420001,118,MN0801,"(40.765359, -73.960059)"
P.S. 93 - BROOKLYN,K,13,IPDVS CAMERA INSTALLATION / IPDVS NSTALLATION,472000,CIP,K093,31 NEW YORK AVENUE,Brooklyn,11216,BROOKLYN,40.679097,-73.94684,303,36,3053993,3018680007,247,BK0301,"(40.679097, -73.94684)"
P.S. 452 - MANHATTAN,M,3,FULL PROGRAM ACCESSIBILITY,12427000,CIP,M191,210 WEST 61 STREET,Manhattan,10023,MANHATTAN,40.771966,-73.987429,107,6,1030320,1011520029,147,MN0701,"(40.771966, -73.987429)"
EPIC HIGH SCHOOL - SOUTH,Q,27,SCIENCE LAB,3680100,CIP,Q226,121-10 ROCKAWAY BOULEVARD,Queens,11420,QUEENS,40.675771,-73.816938,410,28,4253607,4117140100,840,QN1001,"(40.675771, -73.816938)"
P.S. 135 - QUEENS,Q,29,ELECTRICAL WORK FOR A/C INITIATIVE,41043,CIP,Q135,207-11 89TH AVENUE,Queens,11427,QUEENS,40.720154,-73.757367,413,23,4225816,4105820016,49202,QN1303,"(40.720154, -73.757367)"
I.S. 143 - MANHATTAN,M,6,FACADE REMEDIATION @ M143 / WINDOWS,25645000,CIP,M143,511 WEST 182 STREET,Manhattan,10033,MANHATTAN,40.848908,-73.930948,112,10,1063703,1021550035,269,MN1202,"(40.848908, -73.930948)"
P.S. /I.S 295 - QUEENS,Q,29,EXTERIOR MASONRY / PARAPETS / ROOFS / RTU REPLACEMENT,10796000,CIP,Q263,222-14 JAMAICA AVENUE,Queens,11428,QUEENS,40.720619,-73.731997,413,23,4231378,4108130005,568,QN1303,"(40.720619, -73.731997)"
P.S. 123 - QUEENS,Q,27,LSP DOMESTIC WATER HEATER REPLACEMENT,147058.92,CIP,Q123,145-01 119 AVENUE,Queens,11436,QUEENS,40.678296,-73.79562,412,28,4260828,4120190010,18402,QN1203,"(40.678296, -73.79562)"
P.S. 169 - QUEENS,Q,25,FIRE ALARM SYSTEM / WORK IN SUPPORT OF ADDITION,5418106.85,CIP,Q169,18-25 212 STREET,Queens,11360,QUEENS,40.782248,-73.779063,407,19,4131147,4058650050,99704,QN0703,"(40.782248, -73.779063)"
P.S. 31 - STATEN ISLAND,R,31,PLANYC BOILER CONVERSION / PLANYC CLIMATE CONTROL,8370000,CIP,R031,55 LAYTON AVENUE,Staten Island,10301,STATEN IS,40.641595,-74.085135,501,49,5001150,5000490182,9,SI0101,"(40.641595, -74.085135)"
CONCORD HS - R,R,31,FY22 RESO A (MA) CULINARY KITCHEN / PATH OF TRAVEL RESO A (MA) CULINARY KITCHEN,2587000,CIP,R470,109 RHINE AVENUE,Staten Island,10304,STATEN IS,40.610868,-74.087379,501,49,5043479,5028850001,4004,SI0103,"(40.610868, -74.087379)"
X186 SPED - BRONX,X,12,FULL PROGRAM ACCESSIBILITY,7272000,CIP,X136,750 JENNINGS STREET,Bronx,10459,BRONX,40.83182,-73.898075,203,17,2010344,2029690001,151,BX0301,"(40.83182, -73.898075)"
PERFORMING ARTS AND TECH. HS - K,K,19,PATH OF TRAVEL SCIENCE LAB UPGRADE / SCIENCE LAB UPGRADES,1583220,CIP,K435,400 PENNSYLVANIA AVENUE,Brooklyn,11207,BROOKLYN,40.667456,-73.894747,305,42,3084440,3037880001,1156,BK0502,"(40.667456, -73.894747)"
HS FOR ARTS & TECHNOLOGY - M,M,3,AUDITORIUM FIRE SAFETY SYSTEM UPGRADE,1495000,CIP,M490,122 AMSTERDAM AVENUE,Manhattan,10023,MANHATTAN,40.774351,-73.984753,107,6,1030343,1011570025,15101,MN0701,"(40.774351, -73.984753)"
P.S. 105 - BROOKLYN,K,20,LSP - REPLACE DOMESTIC WATER HEATER,120028,CIP,K105,1031 59 STREET,Brooklyn,11219,BROOKLYN,40.632936,-74.00374,312,43,3140612,3057020001,214,BK1202,"(40.632936, -74.00374)"
I.S. 72 - STATEN ISLAND,R,31,PLANYC BOILER CONVERSION / PLANYC CLIMATE CONTROL,7976000,CIP,R072,33 FERNDALE AVENUE,Staten Island,10314,STATEN IS,40.593005,-74.158988,502,51,5037524,5023640001,27706,SI0204,"(40.593005, -74.158988)"
P.S. 102 - QUEENS,Q,24,FY19 RESO A ROOM CONVERSIONS/PARTITIONING,36440,CIP,Q102,55-24 VAN HORN STREET,Queens,11373,QUEENS,40.733514,-73.877857,404,30,4437597,4028790031,479,QN0401,"(40.733514, -73.877857)"
P.S. 145 - BROOKLYN,K,32,CAFETERIA FLOOR,1179575,CIP,K145,100 NOLL STREET,Brooklyn,11206,BROOKLYN,40.701621,-73.93241,304,34,3071915,3031530011,425,BK0401,"(40.701621, -73.93241)"
P.S./I.S. 218 - BRONX,X,9,EXTERIOR MASONRY / FLOOD ELIMINATION / PARAPETS / ROOFS,5564000,CIP,X235,1220 GERARD AVENUE,Bronx,10452,BRONX,40.835847,-73.920026,204,16,2097130,2024800008,197,BX0401,"(40.835847, -73.920026)"
P.S. 19 - MANHATTAN,M,1,PLANYC BOILER CONVERSION / PLANYC CLIMATE CONTROL,6866000,CIP,M019,185 1 AVENUE,Manhattan,10003,MANHATTAN,40.729636,-73.983818,103,2,1006478,1004530034,4001,MN0303,"(40.729636, -73.983818)"
P.S. 3 - STATEN ISLAND,R,31,PLANYC BOILER CONVERSION / PLANYC CLIMATE CONTROL,6930000,CIP,R003,80 SOUTH GOFF AVENUE,Staten Island,10309,STATEN IS,40.520699,-74.211264,503,51,5083311,5067960044,198,SI0304,"(40.520699, -74.211264)"
P.S. 161 - BROOKLYN,K,17,EXTERIOR MASONRY / FLOOD ELIMINATION / PARAPETS / ROOFS,16588000,CIP,K161,330 CROWN STREET,Brooklyn,11225,BROOKLYN,40.666181,-73.949013,309,35,3034181,3012970026,319,BK0901,"(40.666181, -73.949013)"
P.S. 66 - BRONX,X,12,FY22 RESO A LIBRARY UPGRADE / PATH OF TRAVEL RESO A LIBRARY UPGRADE,448000,CIP,X066,1001 JENNINGS STREET,Bronx,10460,BRONX,40.831165,-73.887094,203,17,2010916,2030080001,157,BX0303,"(40.831165, -73.887094)"
ALFRED E. SMITH HS - X,X,7,IPDVS CAMERA INSTALLATION,568596,CIP,X600,333 EAST 151 STREET,Bronx,10451,BRONX,40.818232,-73.919867,201,17,2001874,2024110022,67,BX0102,"(40.818232, -73.919867)"
3K CENTER @ 104-72 ROOSEVELT AVENUE - QUEENS,Q,24,Lease,8580378,CAP,Q331,104-72 ROOSEVELT AVENUE,Queens,11368,QUEENS,40.750445,-73.85966,404,21,4000000,4019840034,40301,QN0402,"(40.750445, -73.85966)"
P.S. 209 - QUEENS,Q,25,FY22 RESO A AUDITORIUM UPGRADE,263000,CIP,Q209,16-10 UTOPIA PARKWAY,Queens,11357,QUEENS,40.783608,-73.794654,407,19,4128717,4057340001,1017,QN0703,"(40.783608, -73.794654)"
P.S. 130 - QUEENS,Q,26,DOMESTIC WATER HEATER REPLACEMENT / PLANYC BOILER CONVERSION / PLANYC CLIMATE CONTROL,7947000,CIP,Q130,200-01 42 AVENUE,Queens,11361,QUEENS,40.759517,-73.784029,411,19,4137034,4062030001,1463,QN1101,"(40.759517, -73.784029)"
WILLIAM C. BRYANT HS - QUEENS,Q,30,FY20 RESO A GYMNASIUM UPGRADE / FY20 RESO A PATH OF TRAVEL GYMNASIUM UPGRADE,787700,CIP,Q445,48-10 31 AVENUE,Queens,11103,QUEENS,40.75823,-73.910514,401,26,4013655,4007380002,163,QN0104,"(40.75823, -73.910514)"
P.S. 334 - MANHATTAN,M,3,EXTERIOR MASONRY / PARAPETS / ROOFS / WINDOWS,19200000,CIP,M044,100 WEST 77 STREET,Manhattan,10024,MANHATTAN,40.780822,-73.976855,107,6,1030178,1011480014,161,MN0702,"(40.780822, -73.976855)"
3K CENTER @ 1010 THIRD AVENUE - MANHATTAN,M,2,Lease,13432919,CAP,M524,1010 THIRD AVENUE,Manhattan,10065,MANHATTAN,40.762278,-73.966071,108,4,1041959,1013957501,11402,MN0802,"(40.762278, -73.966071)"
P.S. 30 - BRONX,X,7,EXTERIOR MASONRY / PARAPETS / ROOFS,9630000,CIP,X030,510 EAST 141 STREET,Bronx,10454,BRONX,40.80937,-73.917584,201,8,2000077,2022670015,39,BX0101,"(40.80937, -73.917584)"
BACCALAUREATE SCL FOR GLOBAL ED-Q,Q,30,LSP- DOMESTIC HOT WATER HEATER REPLACEMENT,213968.76,CIP,Q798,34-12 36TH AVENUE,Queens,11106,QUEENS,40.755366,-73.927169,401,26,4009499,4006340036,55,QN0105,"(40.755366, -73.927169)"
P.S. 114 - BRONX,X,9,EXTERIOR MASONRY / FLOOD ELIMINATION / ROOFS / WINDOWS,8618549,CIP,X114,1155 CROMWELL AVENUE,Bronx,10452,BRONX,40.834776,-73.923067,204,16,2003022,2024950100,6302,BX0491,"(40.834776, -73.923067)"
P.S. 297 - BROOKLYN,K,14,IPDVS CAMERA INSTALLATION,427900,CIP,K297,700 PARK AVENUE,Brooklyn,11206,BROOKLYN,40.697781,-73.947809,303,36,3048508,3017390011,257,BK0301,"(40.697781, -73.947809)"
P.S. 503 - BROOKLYN,K,20,AHU REPLACEMENT / BMS UPGRADE / CHILLER REPLACEMENT,9378000,CIP,K314,330 59 STREET,Brooklyn,11220,BROOKLYN,40.642121,-74.018997,307,38,3016258,3008620012,74,BK0702,"(40.642121, -74.018997)"
P.S. 384 - BROOKLYN,K,32,LL 26-EXIT SIGNS,80059.32,CIP,K384,242 COOPER STREET,Brooklyn,11207,BROOKLYN,40.690353,-73.904803,304,37,3080043,3034420001,409,BK0402,"(40.690353, -73.904803)"
SATELLITE ACADEMY - M,M,2,IPDVS INSTALLATIONS,549000,CIP,M920,120 WEST 30 STREET,Manhattan,10001,MANHATTAN,40.747621,-73.990454,105,3,1015148,1008050071,95,MN0501,"(40.747621, -73.990454)"
M079 SPED - MANHATTAN,M,5,PLANYC BOILER CONVERSION / PLANYC CLIMATE CONTROL,8351000,CIP,M079,55 EAST 120 STREET,Manhattan,10035,MANHATTAN,40.802419,-73.942634,111,9,1053968,1017470001,198,MN1102,"(40.802419, -73.942634)"
P.S. 174 - QUEENS,Q,28,Addition,49672074,CAP,Q174,65-30 DIETERLE CRESCENT,Queens,11374,QUEENS,40.720874,-73.860978,406,30,4000000,4031340001,69702,QN0601,"(40.720874, -73.860978)"
P.S. 26 - QUEENS,Q,26,Addition,58108744,CAP,Q026,195-02 69 AVENUE,Queens,11365,QUEENS,40.736922,-73.77799,408,23,4153296,4071170421,134702,QN0803,"(40.736922, -73.77799)"
P.S. 87 - QUEENS,Q,24,FY19 RESO A CAFETERIA / MULTIPURPOSE ROOM UPGRADE,1300000,CIP,Q087,67-54 80 STREET,Queens,11379,QUEENS,40.711815,-73.871238,405,30,4091737,4037820027,621,QN0504,"(40.711815, -73.871238)"
I.S. 246 - BROOKLYN,K,17,FY23 RESO A LIBRARY UPGRADE / PATH OF TRAVEL RESO A LIBRARY UPGRADE,475000,CIP,K246,72 VERONICA PLACE,Brooklyn,11226,BROOKLYN,40.648608,-73.952821,317,40,3117381,3051100025,794,BK1701,"(40.648608, -73.952821)"
K373 SPED - BROOKLYN,K,17,EXTERIOR MASONRY / FLOOD ELIMINATION / WINDOWS,4759000,CIP,K877,35 SNYDER AVENUE,Brooklyn,11226,BROOKLYN,40.648585,-73.957282,314,40,3338996,3051030093,794,BK1701,"(40.648585, -73.957282)"
PRE-K CENTER @ 98-22 55 AVENUE - QUEENS,Q,24,Lease,0,CAP,Q437,98-22 55 AVENUE,Queens,11368,QUEENS,40.739192,-73.862261,404,21,4437298,4019070023,44302,QN0402,"(40.739192, -73.862261)"
I.S. 123 - BRONX,X,8,PLANYC BOILER CONVERSION / PLANYC CLIMATE CONTROL / WATER INFILTRATION,6864000,CIP,X123,1025 MORRISON AVENUE,Bronx,10472,BRONX,40.825403,-73.873666,209,18,2087014,2037180001,48,BX0901,"(40.825403, -73.873666)"
Q752 SPED - QUEENS,Q,28,EXTERIOR MASONRY / PARAPETS / REINFORCING SUPPORT ELEMENTS / ROOFS,5000527,CIP,Q142,142-10 LINDEN BOULEVARD,Queens,11436,QUEENS,40.684142,-73.801479,412,28,4259200,4119720070,192,QN1203,"(40.684142, -73.801479)"
P.S. @ 4308 4 AVENUE - BROOKLYN,K,15,New,47695598,CAP,K557,4308 4 AVENUE,Brooklyn,11232,BROOKLYN,40.65028,-74.008627,307,38,3000000,3007280036,82,BK0702,"(40.65028, -74.008627)"
P.S. 7 - QUEENS,Q,24,TCU REMOVAL/PLAYGROUND REDEVELOPMENT,2765000,CIP,Q007,80-55 CORNISH AVENUE,Queens,11373,QUEENS,40.739115,-73.882487,404,25,4467710,4015380075,485,QN0401,"(40.739115, -73.882487)"
P.S. 159 - BROOKLYN,K,19,ELECTRICAL WORK FOR A/C INITIATIVE / LL26 CODE COMPLIANCE/EXIT SIGN REPLACEMENT,9020,CIP,K159,2781 PITKIN AVENUE,Brooklyn,11208,BROOKLYN,40.675766,-73.869469,305,42,3094735,3042160001,1200,BK0505,"(40.675766, -73.869469)"
P.S. 138 - QUEENS,Q,29,EXTERIOR MASONRY / FLOOD ELIMINATION / PARAPETS / ROOFS / WINDOWS,24200000,CIP,Q138,251-11 WELLER AVENUE,Queens,11422,QUEENS,40.659728,-73.735176,413,31,4288640,4135780001,660,QN1307,"(40.659728, -73.735176)"
J.H.S. 216 - QUEENS,Q,26,EARLY PACKAGE/TEMPORARY EGRESS / IDA FIRE ALARM SYSTEM REPLACEMENT,2889975,CIP,Q216,64-20 175 STREET,Queens,11365,QUEENS,40.737517,-73.794031,408,24,4149078,4069030001,1341,QN0803,"(40.737517, -73.794031)"
HEADQTRS 65 CNTRL ADMIN. - K,K,15,ELEVATOR MODERNIZATION,800000,CIP,K801,65 COURT STREET,Brooklyn,11201,BROOKLYN,40.692012,-73.991227,302,33,3002557,3002660020,9,BK0201,"(40.692012, -73.991227)"
P.S. 197 - MANHATTAN,M,5,FULL PROGRAM ACCESSIBILITY / LOW VOLTAGE ELECTRICAL SYSTEMS,21043000,CIP,M197,2230 5TH AVENUE,Manhattan,10037,MANHATTAN,40.813184,-73.937322,110,9,1076433,1017330017,212,MN1002,"(40.813184, -73.937322)"
I.S. 35 - BROOKLYN,K,16,IPDVS CAMERA INSTALLATION,554995,CIP,K035,272 MACDONOUGH STREET,Brooklyn,11233,BROOKLYN,40.681904,-73.935895,303,36,3047054,3016740011,273,BK0302,"(40.681904, -73.935895)"
P.S. 20 - QUEENS,Q,25,GYM FLOOR REPLACEMENT,80000,CIP,Q020,142-30 BARCLAY AVENUE,Queens,11355,QUEENS,40.758689,-73.824832,407,20,4114657,4050470001,855,QN0707,"(40.758689, -73.824832)"
I.S. 53 - QUEENS,Q,27,PLANYC BOILER CONVERSION / PLANYC CLIMATE CONTROL,10877000,CIP,Q053,10-45 NAMEOKE STREET,Queens,11691,QUEENS,40.603622,-73.749097,414,31,4298234,4155570025,103202,QN1401,"(40.603622, -73.749097)"
MARTIN VAN BUREN HS - QUEENS,Q,26,LSP- DOMESTIC WATER HEATER,283150,CIP,Q435,230-17 HILLSIDE AVENUE,Queens,11427,QUEENS,40.733066,-73.738756,413,23,4166101,4079300002,1301,QN1302,"(40.733066, -73.738756)"
CSI HS FOR INTERNATIONAL STUDIES - R,R,31,IPDVS COMPLETE TECH REFRESH / IPDVS FULL CAMERA UPGRADE,280168,CIP,R043,100 ESSEX DRIVE,Staten Island,10314,STATEN IS,40.581315,-74.158589,502,51,5149609,5024500320,27702,SI0204,"(40.581315, -74.158589)"
P.S. 124 - QUEENS,Q,27,IPDVS / IPDVS FULL CAMERA UPGRADE / IPDVS INSTALLATION,614000,CIP,Q124,129-15 150 AVENUE,Queens,11420,QUEENS,40.665058,-73.811701,410,28,4257530,4118820001,84602,QN1001,"(40.665058, -73.811701)"
P.S. 174 - QUEENS,Q,28,EXISTING BUILDING-IPDVS,29225,CIP,Q174,65-30 DIETERLE CRESCENT,Queens,11374,QUEENS,40.720874,-73.860978,406,30,4000000,4031340001,69702,QN0601,"(40.720874, -73.860978)"
P.S. 229 - QUEENS,Q,24,ELECTRICAL WORK FOR A/C INITIATIVE / LL26 CODE COMPLIANCE/EXIT SIGN REPLACEMENT,665000,CIP,Q229,67-25 51 ROAD,Queens,11377,QUEENS,40.734294,-73.897557,405,30,4440274,4024230001,513,QN0501,"(40.734294, -73.897557)"
ACHIEVEMENT FIRST EAST NEW YORK CHARTER SCHOOL - K,K,19,PERM FIX- EXTERIOR MASONRY @ K065,3098044.83,CIP,K065,158 RICHMOND STREET,Brooklyn,11208,BROOKLYN,40.683536,-73.87691,305,37,3092063,3041260047,117601,BK0501,"(40.683536, -73.87691)"
BOYS & GIRLS HS - BROOKLYN,K,16,ELECTRICAL WORK FOR A/C INITIATIVE,4510,CIP,K455,1700 FULTON STREET,Brooklyn,11213,BROOKLYN,40.67944,-73.932407,303,36,3047996,3017010001,271,BK0302,"(40.67944, -73.932407)"
NEW DORP HS - STATEN ISLAND,R,31,AIR CONDITIONING / COVID BMS REPLACEMENT / COVID VENTILATION / HOT WATER HEATER REPLACEMENT / REPLACE SINGLE STAGE STEAM ABSORBER,16775000,CIP,R435,465 NEW DORP LANE,Staten Island,10306,STATEN IS,40.569393,-74.107737,502,50,5055367,5039300010,11204,SI9592,"(40.569393, -74.107737)"
BROOKLYN COMMUNITY HIGH SCHOOL FOR EXCELLENCE AND,K,18,C OF O / ELECTRICAL SYSTEMS / LOW-VOLTAGE ELECTRICAL SYSTEMS,5916000,CIP,K515,6565 FLATLANDS AVENUE,Brooklyn,11236,BROOKLYN,40.633285,-73.916735,318,46,3224139,3079980005,950,BK1803,"(40.633285, -73.916735)"
P.S. 172 - BROOKLYN,K,15,EXTERIOR MASONRY / PARAPETS / PAVED AREAS CONCRETE / ROOFS / WINDOWS,15764000,CIP,K172,825 4 AVENUE,Brooklyn,11232,BROOKLYN,40.657914,-74.000652,307,38,3009847,3006690001,101,BK0702,"(40.657914, -74.000652)"
I.S. 131 - BRONX,X,8,CHARTER MATCH SCIENCE LAB UPGRADE / PATH OF TRAVEL CHARTER MATCH SCIENCE LAB UPGRADE,595000,CIP,X131,885 BOLTON AVENUE,Bronx,10473,BRONX,40.82346,-73.859647,209,18,2103869,2036440001,42,BX0902,"(40.82346, -73.859647)"
X721 SPED - BRONX,X,11,EXTERIOR MASONRY WATER PENETRATION / FLOOD ELIMINATION / PARAPETS / ROOFS / WINDOWS,9394223,CIP,X722,2697 WESTCHESTER AVENUE,Bronx,10461,BRONX,40.842289,-73.838949,211,13,2045725,2041330200,284,BX1161,"(40.842289, -73.838949)"
P.S. 74 - STATEN ISLAND,R,31,ROOFS / WINDOWS,5897000,CIP,R831,211 DANIEL LOW TERRACE,Staten Island,10301,STATEN IS,40.639087,-74.079922,501,49,5000290,5000180006,11,SI0101,"(40.639087, -74.079922)"
BERGTRAUM HS - MANHATTAN,M,2,CAFETERIA UPGRADE,2095000,CIP,M520,411 PEARL STREET,Manhattan,10038,MANHATTAN,40.711442,-74.000851,101,1,1001388,1001130100,2901,MN0102,"(40.711442, -74.000851)"
P.S. 130 - MANHATTAN,M,2,FY22 RESO A PLAYGROUND UPGRADE,478164,CIP,M130,143 BAXTER STREET,Manhattan,10013,MANHATTAN,40.718903,-73.998438,102,1,1003086,1002360038,41,MN0201,"(40.718903, -73.998438)"
P.S. 112 - BROOKLYN,K,20,EXTERIOR MASONRY / PARAPETS / ROOFS / WATER INFILTRATION / WINDOWS,9953000,CIP,K112,7115 15 AVENUE,Brooklyn,11228,BROOKLYN,40.61978,-74.000792,311,38,3157760,3061800001,190,BK1101,"(40.61978, -74.000792)"
P.S. / I.S. 270 - QUEENS,Q,29,EXTERIOR MASONRY / GYM FLOOR REPLACEMENT / GYM ROOF / PATH OF TRAVEL GYM FLOOR REPLACEMENT,2380000,CIP,Q270,233-15 MERRICK BOULEVARD,Queens,11422,QUEENS,40.674831,-73.736713,413,31,4529511,4129730001,618,QN1305,"(40.674831, -73.736713)"
P.S. 6 - STATEN ISLAND,R,31,BMS REPLACEMENT / MECHANICAL UNIT REPLACEMENT,13475000,CIP,R006,555 PAGE AVENUE,Staten Island,10307,STATEN IS,40.510735,-74.231109,503,51,5131697,5077600001,24401,SI0305,"(40.510735, -74.231109)"
HS FOR ENVIRONMENTAL STUDIES - M,M,2,ROOF,2525000,CIP,M834,444 WEST 56 STREET,Manhattan,10019,MANHATTAN,40.767791,-73.987531,104,6,1026841,1010650001,139,MN0402,"(40.767791, -73.987531)"
J.H.S. 72 - QUEENS,Q,28,LSP DOMESTIC WATER HEATER,157118.72,CIP,Q072,133-25 GUY R BREWER BOULEVARD,Queens,11434,QUEENS,40.673769,-73.775951,412,28,4270059,4124950270,33403,QN1204,"(40.673769, -73.775951)"
M.S. 282 - QUEENS,Q,27,PAVED AREAS CONCRETE- SIDEWALKS & COURTYARD,2555000,CIP,Q465,8-21 BAY 25 STREET,Queens,11691,QUEENS,40.60201,-73.762795,414,31,4300730,4157360001,100804,QN1401,"(40.60201, -73.762795)"
P.S. 178 - BRONX,X,11,FIRE ALARM SYSTEM REPLACEMENT / FULL PROGRAM ACCESSIBILITY,6831000,CIP,X178,850 BAYCHESTER AVENUE,Bronx,10475,BRONX,40.875894,-73.83386,210,12,2116161,2051410150,46205,BX1004,"(40.875894, -73.83386)"
P.S. 748 - BROOKLYN,K,20,PATH OF TRAVEL PLANYC PLAYGROUND REDEVELOPMENT / PLANYC PLAYGROUND REDEVELOPMENT,1892421,CIP,K163,1664 BENSON AVENUE,Brooklyn,11214,BROOKLYN,40.607234,-74.007199,311,47,3167623,3063990026,180,BK1102,"(40.607234, -74.007199)"
P.S./I.S. @ 3761 10 AVENUE - MANHATTAN,M,6,Demo,1730400,CAP,M502,3761 10 AVENUE,Manhattan,10034,MANHATTAN,40.860962,-73.921475,112,10,1000000,1021980001,299,MN1203,"(40.860962, -73.921475)"
P.S. 48 - MANHATTAN,M,6,ELECTRICAL SERVICE UPGRADE / ELECTRIFICATION/HEAT PUMP SYSTEMS / FIRE ALARM / WINDOWS,45785000,CIP,M048,4360-78 BROADWAY,Manhattan,10033,MANHATTAN,40.853466,-73.934048,112,10,1076752,1021670029,271,MN1202,"(40.853466, -73.934048)"
HILLCREST HS - QUEENS,Q,28,WALK-IN REFRIGERATORS AND FREEZERS,875000,CIP,Q505,160-05 HIGHLAND AVENUE,Queens,11432,QUEENS,40.709079,-73.801856,408,24,4448767,4097740001,448,QN0805,"(40.709079, -73.801856)"
P.S. @ 23-50 WATERS EDGE DRIVE - QUEENS,Q,25,Demo,6550000,CAP,Q388,23-50 WATERS EDGE DRIVE,Queens,11360,QUEENS,40.782157,-73.773112,407,19,4132709,4059580140,99703,QN0703,"(40.782157, -73.773112)"
P.S. 277 - BRONX,X,7,ELECTRICAL WORK FOR A/C INITIATIVE,18219.92,CIP,X027,519 ST ANNS AVENUE,Bronx,10455,BRONX,40.813517,-73.913402,201,8,2000114,2022740023,43,BX0101,"(40.813517, -73.913402)"
P.S. 12 - BROOKLYN,K,23,EXTERIOR MASONRY / FENCING / PARAPETS / ROOFS / WINDOWS,13700000,CIP,K012,430 HOWARD AVENUE,Brooklyn,11233,BROOKLYN,40.673073,-73.919594,316,41,3039174,3014570032,363,BK1601,"(40.673073, -73.919594)"
P.S. 37 - QUEENS,Q,29,ELEVATOR / EXTERIOR MASONRY / FIRE ALARM / FLOOD ELIMINATION / PARAPETS,14990000,CIP,Q037,179-37 137 AVENUE,Queens,11434,QUEENS,40.67588,-73.758505,412,27,4279864,4129930118,352,QN1205,"(40.67588, -73.758505)"
P.S. 75 - BRONX,X,8,FY21 RESO A PLAYGROUND UPGRADE / PATH OF TRAVEL RESO A PLAYGROUND UPGRADE,971000,CIP,X075,984 FAILE STREET,Bronx,10459,BRONX,40.822719,-73.889435,202,17,2006079,2027470001,119,BX0202,"(40.822719, -73.889435)"
P.S. 288 - BROOKLYN,K,21,FY22 RESO A AUDITORIUM UPGRADE,1300000,CIP,K288,2950 WEST 25 STREET,Brooklyn,11224,BROOKLYN,40.574411,-73.99194,313,47,3189538,3070540045,342,BK1302,"(40.574411, -73.99194)"
P.S. 195 - QUEENS,Q,29,PARAPETS / ROOFS / WATER PENETRATION,8010530,CIP,Q195,253-50 149 AVENUE,Queens,11422,QUEENS,40.653006,-73.736395,413,31,4290116,4136550001,66403,QN1307,"(40.653006, -73.736395)"
P.S. 16 - QUEENS,Q,24,LSP WATER HEATER,90000,CIP,Q721,41-15 104 STREET,Queens,11368,QUEENS,40.748987,-73.86123,404,21,4048820,4019850001,40301,QN0402,"(40.748987, -73.86123)"
URBAN ASSEMBLY SCHOOL FOR THE PERFORMING ARTS,M,5,FY18 RESO A LIBRARY UPGRADES,60191,CIP,M043,509 WEST 129 STREET,Manhattan,10027,MANHATTAN,40.815256,-73.955325,109,7,1059723,1019840033,219,MN0902,"(40.815256, -73.955325)"
M.S./H.S. 342 - BRONX,X,10,ELECTRICAL SYSTEMS / EXTERIOR MASONRY / FLOOD ELIMINATION / PARAPETS / ROOFS / WINDOWS,39151000,CIP,X430,2780 RESERVOIR AVENUE,Bronx,10468,BRONX,40.870293,-73.898309,207,11,2015241,2032470070,409,BX0702,"(40.870293, -73.898309)"
INTERNATIONAL HIGH SCHOOL - K,K,21,IPDVS CAMERA INSTALLATION,488000,CIP,K400,2630 BENSON AVENUE,Brooklyn,11214,BROOKLYN,40.594291,-73.98577,313,47,3186454,3068830001,306,BK1301,"(40.594291, -73.98577)"
P.S. 104 - BROOKLYN,K,20,COVID LOW VOLTAGE ELECTRICAL SYSTEMS / COVID VENTILATION / FLOOD ELIMINATION / PLANYC BOILER CONVERSION / PLANYC CLIMATE CONTROL,23966000,CIP,K104,9115 5 AVENUE,Brooklyn,11209,BROOKLYN,40.618415,-74.028842,310,47,3154775,3060880001,160,BK1001,"(40.618415, -74.028842)"
P.S. 208 - BROOKLYN,K,18,COVID CLIMATE CONTROL / COVID FIRE ALARM SYSTEM / COVID VENTILATION,5546000,CIP,K208,4801 AVENUE D,Brooklyn,11203,BROOKLYN,40.642031,-73.931151,317,45,3105680,3047690025,840,BK1702,"(40.642031, -73.931151)"
P.S. 299 - BROOKLYN,K,32,FULL PROGRAM ACCESSIBILITY / PA SYSTEM REPLACEMENT,12777000,CIP,K299,88 WOODBINE STREET,Brooklyn,11221,BROOKLYN,40.691077,-73.918152,304,37,3076734,3033580001,399,BK0402,"(40.691077, -73.918152)"
P.S. 102 - MANHATTAN,M,4,PLANYC BOILER CONVERSION / PLANYC CLIMATE CONTROL,7500000,CIP,M102,315 EAST 113 STREET,Manhattan,10029,MANHATTAN,40.794869,-73.938711,111,8,1081366,1016840101,180,MN1102,"(40.794869, -73.938711)"
H.S. @ 165-15 88 AVENUE - QUEENS,Q,78,New,110755000,CAP,Q497,165-15 88 AVENUE,Queens,11432,QUEENS,40.708691,-73.796674,412,24,4000000,4098160039,460,QN1201,"(40.708691, -73.796674)"
K370 SPED - BROOKLYN,K,21,LOW VOLTAGE ELECTRICAL SYSTEM,1027000,CIP,K370,3000 WEST 1 STREET,Brooklyn,11224,BROOKLYN,40.57752,-73.969517,313,48,3196587,3072740107,35602,BK1302,"(40.57752, -73.969517)"
P.S. @ 1302 EDWARD L GRANT HIGHWAY - BRONX,X,9,New,57533000,CAP,X468,1302 EDWARD L GRANT HIGHWAY,Bronx,10452,BRONX,40.838744,-73.921721,204,16,2000000,2028710061,219,BX0403,"(40.838744, -73.921721)"
BRONX INTERNATIONAL - BRONX,X,9,FLOOD ELIMINATION / INTERIOR SPACES / ROOFS / TOWER TERRA COTTA REPLACEMENT / WINDOWS,37337000,CIP,X400,1110 BOSTON ROAD,Bronx,10456,BRONX,40.827642,-73.904473,203,17,2004526,2026340001,135,BX0301,"(40.827642, -73.904473)"
P.S. 253 - BROOKLYN,K,21,ELECTRICAL WORK FOR A/C INITIATIVE / LL26 CODE COMPLIANCE/EXIT SIGN REPLACEMENT,9020,CIP,K253,2953 BRIGHTON 6 STREET,Brooklyn,11235,BROOKLYN,40.580115,-73.962391,313,48,3244470,3086660610,364,BK1303,"(40.580115, -73.962391)"
P.S. 95 - QUEENS,Q,29,Addition,47953398,CAP,Q095,179-01 90 AVENUE,Queens,11432,QUEENS,40.710624,-73.783423,412,23,4446042,4099140001,468,QN1201,"(40.710624, -73.783423)"
P.S. 193 - BROOKLYN,K,22,LSP PVI DOMESTIC WATER HEATER,11119.9,CIP,K193,2515 AVENUE L,Brooklyn,11210,BROOKLYN,40.621507,-73.950473,314,45,3208461,3076250001,754,BK1403,"(40.621507, -73.950473)"
P.S. 152 - MANHATTAN,M,6,DEMOLITION OF MINI BUILDING / PATH OF TRAVEL PLAYGROUND REDEVELOPMENT / PLAYGROUND REDEVELOPMENT,5831248.64,CIP,M152,93 NAGLE AVENUE,Manhattan,10040,MANHATTAN,40.860412,-73.927936,112,10,1064149,1021730001,283,MN1202,"(40.860412, -73.927936)"
P.S. 57 - STATEN ISLAND,R,31,FULL PROGRAM ACCESSIBILITY / LOW-VOLTAGE ELECTRICAL SYSTEMS,14210000,CIP,R057,140 PALMA DRIVE,Staten Island,10304,STATEN IS,40.611508,-74.083177,501,49,5043519,5028880040,4004,SI0103,"(40.611508, -74.083177)"
P.S. 183 - MANHATTAN,M,2,FY19 RESO A SUPPLEMENTAL COOLING,388000,CIP,M183,419 EAST 66 STREET,Manhattan,10065,MANHATTAN,40.763736,-73.95815,108,5,1045569,1014610007,116,MN0801,"(40.763736, -73.95815)"
P.S. 123 - BROOKLYN,K,32,FULL PROGRAM ACCESSIBILITY / MECHANICAL VENTILATION,17541000,CIP,K123,100 IRVING AVENUE,Brooklyn,11237,BROOKLYN,40.703767,-73.922702,304,34,3072966,3032100001,445,BK0401,"(40.703767, -73.922702)"
THE SCHOLARS ACADEMY - QUEENS,Q,27,EXTERIOR MASONRY / PARAPETS / ROOF REPLACEMENT,7094000,CIP,Q180,320 BEACH 104 STREET,Queens,11694,QUEENS,40.584158,-73.825736,414,32,4303722,4161590012,938,QN1403,"(40.584158, -73.825736)"
I.S. 217 - QUEENS,Q,28,EXTERIOR MASONRY / PARAPETS / ROOFS,9897000,CIP,Q217,85-05 144 STREET,Queens,11435,QUEENS,40.71003,-73.812508,408,24,4208124,4097240173,232,QN0805,"(40.71003, -73.812508)"
P.S. 315 - BROOKLYN,K,22,LOW VOLTAGE ELECTRICAL SYSTEM,1243000,CIP,K152,725 EAST 23 STREET,Brooklyn,11210,BROOKLYN,40.632562,-73.954724,314,45,3205780,3075510026,772,BK1401,"(40.632562, -73.954724)"
QUEENS ACADEMY HIGH SCHOOL - Q,Q,25,FY21 RESO A GYMNASIUM UPGRADE,40000,CIP,Q023,138-11 35 AVENUE,Queens,11354,QUEENS,40.765162,-73.8288,407,20,4112106,4049560055,88902,QN0707,"(40.765162, -73.8288)"
P.S. 96 - MANHATTAN,M,4,LOW VOLTAGE ELECTRICAL SYSTEM / PLANYC BOILER CONVERSION / PLANYC CLIMATE CONTROL,9680050,CIP,M096,216 EAST 120 STREET,Manhattan,10035,MANHATTAN,40.800256,-73.937558,111,8,1074333,1017840012,194,MN1102,"(40.800256, -73.937558)"
P.S. 110 - BRONX,X,9,ELECTRICAL WORK FOR A/C INITIATIVE,4171.6,CIP,X110,580 CROTONA PARK SOUTH,Bronx,10456,BRONX,40.835286,-73.900751,203,15,2009718,2029320001,149,BX0301,"(40.835286, -73.900751)"
MONROE ACAD FOR VISUAL ARTS - X,X,12,EXTERIOR MASONRY / FLOOD ELIMINATION / PARAPETS / ROOFS / WINDOWS,15807450,CIP,X420,1300 BOYNTON AVENUE,Bronx,10472,BRONX,40.831601,-73.878912,209,17,2027459,2038640001,56,BX0901,"(40.831601, -73.878912)"
P.S. 109 - BROOKLYN,K,22,FY22 RESO A LIBRARY UPGRADE,140000,CIP,K395,1001 EAST 45 STREET,Brooklyn,11203,BROOKLYN,40.636455,-73.933582,317,45,3114526,3050220002,836,BK1702,"(40.636455, -73.933582)"
K372 SPED - BROOKLYN,K,15,FY21 RESO A PLAYGROUND UPGRADE,512419.1,CIP,K834,512 CARROLL STREET,Brooklyn,11215,BROOKLYN,40.676668,-73.985258,306,39,3007707,3004550001,11901,BK0601,"(40.676668, -73.985258)"
P.S. 56 - QUEENS,Q,27,TCU REMOVAL/PLAYGROUND REDEVELOPMENT,1225000,CIP,Q056,86-10 114 STREET,Queens,11418,QUEENS,40.69919,-73.835299,409,29,4192689,4092260057,130,QN0902,"(40.69919, -73.835299)"
P.S. 189 - BROOKLYN,K,17,EXTERIOR MASONRY / PARAPETS / ROOFS / WATER INFILTRATION @ K189,8467000,CIP,K189,1100 EAST NEW YORK AVENUE,Brooklyn,11212,BROOKLYN,40.665565,-73.926246,317,41,3099537,3045990001,892,BK1704,"(40.665565, -73.926246)"
P.S. 80 - QUEENS,Q,28,FLOOD ELIMINATION / PA SYSTEM REPLACEMENT / PLANYC BOILER CONVERSION / PLANYC CLIMATE CONTROL,8276000,CIP,Q080,171-05 137 AVENUE,Queens,11434,QUEENS,40.67282,-73.769252,412,28,4270056,4124950166,33405,QN1204,"(40.67282, -73.769252)"
I.S. 239 - BROOKLYN,K,21,IPDVS INSTALLATIONS,495510,CIP,K239,2401 NEPTUNE AVENUE,Brooklyn,11224,BROOKLYN,40.578188,-73.99203,313,47,3188221,3069650140,330,BK1302,"(40.578188, -73.99203)"
M169 SPED - MANHATTAN,M,2,FLOOD ELIMINATION / PARAPETS / PATH OF TRAVEL ROOF / ROOFS / WINDOWS,5503000,CIP,M169,110 EAST 88 STREET,Manhattan,10128,MANHATTAN,40.781227,-73.955673,108,4,1048043,1015167502,14802,MN0802,"(40.781227, -73.955673)"
P.S. 9 - BRONX,X,10,CRACKED MASONRY / PARAPETS / ROOF / ROOFS,17406397.21,CIP,X930,230 EAST 183 STREET,Bronx,10458,BRONX,40.857067,-73.898936,205,15,2013561,2031500010,38301,BX0503,"(40.857067, -73.898936)"
G. WASHINGTON CARVER HS FOR SCI.-Q,Q,29,FY20 RESO A PATH OF TRAVEL ROOM CONVERSION / FY20 RESO A ROOM CONVERSION,1456000,CIP,Q420,143-10 SPRINGFIELD BOULEVARD,Queens,11413,QUEENS,40.668235,-73.756839,412,31,4280845,4130570056,330,QN1204,"(40.668235, -73.756839)"
SUMMIT ACADEMY CHARTER SCHOOL - K,K,15,RPZ BACKFLOW PREVENTION DEVICES,534000,CIP,K027,27 HUNTINGTON STREET,Brooklyn,11231,BROOKLYN,40.677564,-74.005166,306,38,3008342,3005250001,59,BK0601,"(40.677564, -74.005166)"
P.S. 222 - BROOKLYN,K,22,FY21 RESO A PLAYGROUND UPGRADE,563111,CIP,K222,3301 QUENTIN ROAD,Brooklyn,11234,BROOKLYN,40.613317,-73.938871,318,46,3212254,3077060001,646,BK1802,"(40.613317, -73.938871)"
WHITELAW REID ACADEMY OF ARTS AND BUSINESS - BROOK,K,16,BUILDING DRAIN BACKUP,835519,CIP,K057,125 STUYVESANT AVENUE,Brooklyn,11221,BROOKLYN,40.691274,-73.933697,303,36,3043822,3016160001,291,BK0302,"(40.691274, -73.933697)"
UNIVERSITY NEIGHBORHOOD HS - M,M,1,FY18 RESO A SAFETY SYSTEMS,60000,CIP,M446,200 MONROE STREET,Manhattan,10002,MANHATTAN,40.712399,-73.984497,103,1,1003214,1002590044,202,MN0302,"(40.712399, -73.984497)"
STATEN ISLAND TECHNICAL HS - R,R,31,FY21 RESO A GYMNASIUM UPGRADE,84000,CIP,R440,485 CLAWSON STREET,Staten Island,10306,STATEN IS,40.567873,-74.115373,502,50,5107621,5042440001,134,SI0202,"(40.567873, -74.115373)"
P.S. 382 - BRONX,X,10,REINFORCE SUPPORT ELEMENTS,697000,CIP,X079,125 EAST 181 STREET,Bronx,10453,BRONX,40.854872,-73.903458,205,14,2013849,2031700001,23704,BX0503,"(40.854872, -73.903458)"
K000 - BROOKLYN,K,20,GYMATORIUM ACCESSIBILITY,173122,CIP,K464,1514 72 STREET,Brooklyn,11228,BROOKLYN,40.619061,-74.000753,311,38,3383724,3061910001,190,BK1101,"(40.619061, -74.000753)"
P.S. 13 - QUEENS,Q,24,EXTERIOR MASONRY / FLOOD ELIMINATION / PARAPETS / ROOFS / WINDOWS,13719026,CIP,Q013,55-01 94TH STREET,Queens,11373,QUEENS,40.737613,-73.86851,404,25,4437297,4019010040,457,QN0401,"(40.737613, -73.86851)"
J.H.S. 237 - QUEENS,Q,25,ELEVATOR MODERNIZATION,9486000,CIP,Q237,46-21 COLDEN STREET,Queens,11355,QUEENS,40.749545,-73.822073,407,20,4116436,4051470001,845,QN0705,"(40.749545, -73.822073)"
P.S. @ 3850 REVIEW PLACE - BRONX,X,10,Demo,4224000,CAP,X515,3850 REVIEW PLACE,Bronx,10463,BRONX,40.885217,-73.899487,208,11,,,283,BX0802,"(40.885217, -73.899487)"
FORT HAMILTON HS - K,K,20,LOW VOLTAGE ELECTRICAL SYSTEM,3051000,CIP,K490,8301 SHORE ROAD,Brooklyn,11209,BROOKLYN,40.627898,-74.039985,310,47,3152318,3060130001,46,BK1001,"(40.627898, -74.039985)"
P.S. 24 - BRONX,X,10,EXTERIOR MASONRY / REINFORCING SUPPORT ELEMENTS,4339786,CIP,X024,660 WEST 236 STREET,Bronx,10463,BRONX,40.887111,-73.913697,208,11,2085869,2059170140,309,BX0803,"(40.887111, -73.913697)"
P.S. 119 - BRONX,X,8,FLOOD ELIMINATION / PARAPETS,534975,CIP,X119,1075 PUGSLEY AVENUE,Bronx,10472,BRONX,40.828518,-73.856569,209,18,2025696,2037890021,4001,BX0903,"(40.828518, -73.856569)"
P.S. 92 - QUEENS,Q,30,RPZ BACKFLOW PREVENTION DEVICES,187000,CIP,Q292,99-01 34TH AVENUE,Queens,11368,QUEENS,40.755418,-73.869017,403,21,4042496,4017140018,377,QN0303,"(40.755418, -73.869017)"
P.S. 13 - STATEN ISLAND,R,31,EXTERIOR MASONRY / FLOOD ELIMINATION / PARAPETS / ROOFS / WINDOWS,6800000,CIP,R013,191 VERMONT AVENUE,Staten Island,10305,STATEN IS,40.613216,-74.069889,501,49,5042776,5028520001,8,SI0103,"(40.613216, -74.069889)"
P.S. 163 - MANHATTAN,M,3,EXTERIOR MASONRY / FLOOD ELIMINATION / PARAPETS / ROOFS / WINDOWS,19848013,CIP,M163,163 WEST 97 STREET,Manhattan,10025,MANHATTAN,40.794442,-73.969139,107,7,1055908,1018520099,185,MN0703,"(40.794442, -73.969139)"
P.S. 33 - QUEENS,Q,29,FY19 RESO A GYMNASIUM UPGRADE,82488,CIP,Q033,91-37 222 STREET,Queens,11428,QUEENS,40.727134,-73.735077,413,23,4230589,4107560001,560,QN1303,"(40.727134, -73.735077)"
P.S. 43 - BRONX,X,7,IPDVS INSTALLATIONS,599000,CIP,X043,165 BROWN PLACE,Bronx,10454,BRONX,40.806351,-73.921196,201,8,2000205,2022800040,25,BX0101,"(40.806351, -73.921196)"
P.S. 191 - QUEENS,Q,26,IPDVS INSTALLATIONS,472000,CIP,Q191,85-15 258 STREET,Queens,11001,QUEENS,40.734318,-73.709137,413,23,4180083,4088010014,157903,QN1301,"(40.734318, -73.709137)"
P.S. 99 - BROOKLYN,K,21,IPDVS INSTALLATIONS,406000,CIP,K099,1120 EAST 10 STREET,Brooklyn,11230,BROOKLYN,40.621565,-73.965595,312,44,3171478,3065350011,454,BK1204,"(40.621565, -73.965595)"
P.S. 2 - MANHATTAN,M,2,EXTERIOR MASONRY / PARAPETS / ROOFS / SECURITY LIGHTING / WINDOWS,13562000,CIP,M002,122 HENRY STREET,Manhattan,10002,MANHATTAN,40.713273,-73.991339,103,1,1003248,1002730001,6,MN0301,"(40.713273, -73.991339)"
I.S. 119 - QUEENS,Q,24,EXTERIOR DOORS / EXTERIOR MASONRY / FIRE ALARM / FLOOD ELIMINATION / LL26 EXIT SIGNS / PARAPETS / ROOFS / WINDOWS,19271000,CIP,Q119,74-01 78 AVENUE,Queens,11385,QUEENS,40.704406,-73.875183,405,32,4092660,4038120020,63301,QN0503,"(40.704406, -73.875183)"
P.S. 282 - BROOKLYN,K,13,PLANYC BOILER CONVERSION / PLANYC CLIMATE CONTROL,5828000,CIP,K282,180 6 AVENUE,Brooklyn,11217,BROOKLYN,40.67634,-73.977367,306,39,3019597,3009500024,131,BK0602,"(40.67634, -73.977367)"
JOHN BOWNE HS ANNEX - QUEENS,Q,78,Demo,794451,CAP,Q511,146-50 REEVES AVENUE,Queens,11367,QUEENS,40.739504,-73.823258,408,24,,,809,QN0801,"(40.739504, -73.823258)"
P.S. 69 - QUEENS,Q,30,LSP DOMESTIC WATER HEATER,159694.25,CIP,Q069,77-02 37 AVENUE,Queens,11372,QUEENS,40.749266,-73.888817,403,25,4029892,4012880001,287,QN0301,"(40.749266, -73.888817)"
AVIATION HS - QUEENS,Q,24,LOW VOLTAGE ELECTRICAL SYSTEMS,1250000,CIP,Q610,45-30 36 STREET,Queens,11101,QUEENS,40.743509,-73.929076,402,26,4436685,4002260001,17902,QN0202,"(40.743509, -73.929076)"
P.S. 122 - QUEENS,Q,30,EXTERIOR MASONRY / FLOOD ELIMINATION / PARAPETS / ROOFS,11773000,CIP,Q122,21-21 DITMARS BOULEVARD,Queens,11105,QUEENS,40.780347,-73.916655,401,22,4019633,4008800001,103,QN0101,"(40.780347, -73.916655)"
P.S. 200 - BROOKLYN,K,20,EXTERIOR MASONRY / PARAPETS / ROOFS,7947450,CIP,K200,1940 BENSON AVENUE,Brooklyn,11214,BROOKLYN,40.603188,-74.001408,311,38,3167818,3064070008,282,BK1102,"(40.603188, -74.001408)"
BRIGHTER CHOICE COMMUN SCHL - K,K,16,IPDVS INSTALLATIONS,485995,CIP,K304,280 HART STREET,Brooklyn,11206,BROOKLYN,40.694086,-73.940744,303,36,3049420,3017730014,281,BK0302,"(40.694086, -73.940744)"
P.S. 9 - BRONX,X,10,INTRUSION ALARM SYSTEM / STH-SBHC ROOM CONVERSION / STHÂ¿SBHC ELECTRICAL SYSTEMS,5873400,CIP,X009,230 EAST 183 STREET,Bronx,10458,BRONX,40.857067,-73.898936,205,15,2013561,2031500010,38301,BX0503,"(40.857067, -73.898936)"
"MATH, SCI., RESEARCH & TECH. HS-Q",Q,29,SCIENCE LAB UPGRADES,2226000,CIP,Q490,207-01 116 AVENUE,Queens,11411,QUEENS,40.697819,-73.745728,413,27,4238003,4110490001,53401,QN1304,"(40.697819, -73.745728)"
P.S. 146 - BRONX,X,8,IPDVS INSTALLATIONS,398000,CIP,X146,968 CAULDWELL AVENUE,Bronx,10456,BRONX,40.825025,-73.906143,203,17,2004498,2026320027,18502,BX0301,"(40.825025, -73.906143)"
P.S. 123 - MANHATTAN,M,5,RPZ BACKFLOW PREVENTION DEVICES,674101,CIP,M123,301 WEST 140 STREET,Manhattan,10030,MANHATTAN,40.819767,-73.944433,110,9,1060726,1020420035,22102,MN1002,"(40.819767, -73.944433)"
HARRY S. TRUMAN HS - X,X,11,FULL PROGRAM ACCESSIBILITY,11748000,CIP,X455,750 BAYCHESTER AVENUE,Bronx,10475,BRONX,40.874088,-73.833904,210,12,2116159,2051410150,46205,BX1004,"(40.874088, -73.833904)"
BROOKLYN LANDMARK ELEMENTARY SCHOOL,K,23,IPDVS INSTALLATION,478000,CIP,K073,251 MACDOUGAL STREET,Brooklyn,11233,BROOKLYN,40.680318,-73.910644,316,37,3041561,3015280001,369,BK1601,"(40.680318, -73.910644)"
P.S. 201 - QUEENS,Q,25,ELECTRICAL WORK FOR A/C INITIATIVE / LL26 CODE COMPLIANCE/EXIT SIGN REPLACEMENT,1138000,CIP,Q201,65-11 155 STREET,Queens,11367,QUEENS,40.736653,-73.813346,408,24,4146992,4067920100,122702,QN0802,"(40.736653, -73.813346)"
P.S. 1 - MANHATTAN,M,2,EXTERIOR MASONRY / FLOOD ELIMINATION / ROOF / WINDOWS,24910000,CIP,M001,8 HENRY STREET,Manhattan,10038,MANHATTAN,40.71276,-73.997489,103,1,1003375,1002790040,27,MN0301,"(40.71276, -73.997489)"
P.S. 6 - BROOKLYN,K,17,FY23 RESO A AUDITORIUM UPGRADE,334700,CIP,K006,43 SNYDER AVENUE,Brooklyn,11226,BROOKLYN,40.64859,-73.957138,314,40,3117230,3051030079,794,BK1701,"(40.64859, -73.957138)"
BROOKLYN LANDMARK ELEMENTARY SCHOOL,K,23,LSP- AUDITORIUM UPGRADE,200000,CIP,K073,251 MACDOUGAL STREET,Brooklyn,11233,BROOKLYN,40.680318,-73.910644,316,37,3041561,3015280001,369,BK1601,"(40.680318, -73.910644)"
P.S. 95 - QUEENS,Q,29,LSP DOMESTIC WATER HEATER,171058.92,CIP,Q095,179-01 90 AVENUE,Queens,11432,QUEENS,40.710624,-73.783423,412,23,4446042,4099140001,468,QN1201,"(40.710624, -73.783423)"
P.S. 63 - BRONX,X,9,EXTERIOR MASONRY / PARAPETS / PAVED AREAS CONCRETE / REINFORCING SUPPORT ELEMENTS / ROOFS / WINDOWS,20294000,CIP,X063,1260 FRANKLIN AVENUE,Bronx,10456,BRONX,40.830965,-73.902738,203,17,2004302,2026150014,149,BX0301,"(40.830965, -73.902738)"
I.S. 255 - MANHATTAN,M,2,FY20 RESO A ACCESSIBILITY,518000,CIP,M040,320 EAST 20 STREET,Manhattan,10003,MANHATTAN,40.735751,-73.981655,106,2,1020513,1009250012,64,MN0602,"(40.735751, -73.981655)"
I.S. 302 - BRONX,X,8,FY21 RESO A STEM LAB / PATH OF TRAVEL RESO A STEM LAB,623000,CIP,X052,681 KELLY STREET,Bronx,10455,BRONX,40.815429,-73.902139,202,17,2005133,2026860020,83,BX0202,"(40.815429, -73.902139)"
LYONS COMMUNITY SCHOOL - K,K,14,IPDVS CAMERA INSTALLATION,370000,CIP,K049,223 GRAHAM AVENUE,Brooklyn,11206,BROOKLYN,40.709941,-73.943641,301,34,3070825,3030250001,505,BK0104,"(40.709941, -73.943641)"
I.S. 228 - BROOKLYN,K,21,EXTERIOR MASONRY / FLOOD ELIMINATION / PARAPETS / ROOFS / WINDOWS,23300000,CIP,K228,228 AVENUE S,Brooklyn,11223,BROOKLYN,40.6013,-73.976953,311,44,3190273,3070840001,410,BK1103,"(40.6013, -73.976953)"
P.S. 363 - MANHATTAN,M,1,LSP FY23 RESO A GYMNASIUM UPGRADE,160000,CIP,M063,121 EAST 3 STREET,Manhattan,10009,MANHATTAN,40.724117,-73.986381,103,2,1005760,1004310014,32,MN0303,"(40.724117, -73.986381)"
I.S. @ 4002 FORT HAMILTON PARKWAY - BROOKLYN,K,15,New,66677000,CAP,K004,4002 FORT HAMILTON PARKWAY,Brooklyn,11218,BROOKLYN,40.642614,-73.991338,312,38,3000000,3055870038,110,BK1201,"(40.642614, -73.991338)"
HS FOR VIOLIN AND DANCE - BRONX,X,9,LSP- INTERIOR SPACES,150000,CIP,X400,1110 BOSTON ROAD,Bronx,10456,BRONX,40.827642,-73.904473,203,17,2004526,2026340001,135,BX0301,"(40.827642, -73.904473)"
P.S. 261 - BROOKLYN,K,15,PATH OF TRAVEL ROOM CONVERSION / ROOM CONVERSION,2512104,CIP,K261,314 PACIFIC STREET,Brooklyn,11201,BROOKLYN,40.687466,-73.988288,302,33,3001070,3001880014,43,BK0202,"(40.687466, -73.988288)"
FLUSHING HS - QUEENS,Q,25,FY18 RESO A AUDITORIUM  UPGRADE,160000,CIP,Q460,35-01 UNION STREET,Queens,11354,QUEENS,40.765166,-73.82789,407,20,4113172,4050020001,1161,QN0707,"(40.765166, -73.82789)"
P.S. 234 - MANHATTAN,M,2,EXTERIOR MASONRY,2875025,CIP,M234,292 GREENWICH STREET,Manhattan,10007,MANHATTAN,40.716017,-74.011038,101,1,1001533,1001420001,21,MN0102,"(40.716017, -74.011038)"
HS FOR HEALTH PROF & HUMAN SERV-M,M,2,LL 26-EXIT SIGNS,144650.92,CIP,M475,345 EAST 15 STREET,Manhattan,10003,MANHATTAN,40.732447,-73.983031,106,2,1020419,1009220008,48,MN0602,"(40.732447, -73.983031)"
P.S. 346 - BROOKLYN,K,19,ELECTRICAL WORK FOR A/C INITIATIVE / LL26 CODE COMPLIANCE/EXIT SIGN REPLACEMENT,20204.8,CIP,K346,1400 PENNSYLVANIA AVENUE,Brooklyn,11239,BROOKLYN,40.64726,-73.881114,305,42,3098294,3044520025,105804,BK0504,"(40.64726, -73.881114)"
P.S. 87 - BRONX,X,11,Addition,50415938,CAP,X087,4200 GRACE AVE,Bronx,10466,BRONX,40.895179,-73.846435,212,12,2123153,2050180001,428,BX1203,"(40.895179, -73.846435)"
P.S. 185 - BROOKLYN,K,20,EXTERIOR MASONRY / FLOOD ELIMINATION / ROOFS,5183000,CIP,K185,8601 RIDGE BOULEVARD,Brooklyn,11209,BROOKLYN,40.623986,-74.033779,310,47,3153416,3060430001,60,BK1001,"(40.623986, -74.033779)"
P.S. 329 - BROOKLYN,K,21,FY20 RESO A GYMNASIUM UPGRADE / FY20 RESO A PATH OF TRAVEL GYMNASIUM UPGRADE,467000,CIP,K329,2929 WEST 30 STREET,Brooklyn,11224,BROOKLYN,40.574607,-73.996292,313,47,3189517,3070510001,342,BK1302,"(40.574607, -73.996292)"
I.S. 219 - BRONX,X,9,FY20 RESO A AUDITORIUM UPGRADE,940000,CIP,X148,3630 THIRD AVENUE,Bronx,10456,BRONX,40.833511,-73.90449,203,16,2009611,2029250001,14701,BX0302,"(40.833511, -73.90449)"
BRIGHTER CHOICE COMMUN SCHL - K,K,16,FIRE ALARM SYSTEM REPLACEMENT / FULL PROGRAM ACCESSIBILITY,13924000,CIP,K304,280 HART STREET,Brooklyn,11206,BROOKLYN,40.694086,-73.940744,303,36,3049420,3017730014,281,BK0302,"(40.694086, -73.940744)"
P.S. 213 - BROOKLYN,K,19,EXTERIOR MASONRY,2832809,CIP,K213,580 HEGEMAN AVENUE,Brooklyn,11207,BROOKLYN,40.66051,-73.890288,305,42,3097334,3043240001,1104,BK0503,"(40.66051, -73.890288)"
P.S. 241 - MANHATTAN,M,3,EXTERIOR DOORS / EXTERIOR MASONRY / PARAPETS,6111000,CIP,M113,240 WEST 113 STREET,Manhattan,10026,MANHATTAN,40.801689,-73.954908,110,9,1055111,1018280015,216,MN1001,"(40.801689, -73.954908)"
P.S. 253 - BROOKLYN,K,21,Addition,53927000,CAP,K253,2953 BRIGHTON 6 STREET,Brooklyn,11235,BROOKLYN,40.580115,-73.962391,313,48,3244470,3086660610,364,BK1303,"(40.580115, -73.962391)"
NAPLES STREET ELEMENTARY SCHOOL - R,R,31,EXTERIOR MASONRY / PARAPETS / PLANYC BOILER CONVERSION / PLANYC CLIMATE CONTROL / ROOFS / WATER PENETRATION IN BASEMENT,13900000,CIP,R048,1055 TARGEE STREET,Staten Island,10304,STATEN IS,40.60223,-74.091355,502,50,5046419,5031710001,50,SI0201,"(40.60223, -74.091355)"
P.S. 235 - BROOKLYN,K,18,ELECTRICAL WORK FOR A/C INITIATIVE,7216,CIP,K235,525 LENOX ROAD,Brooklyn,11203,BROOKLYN,40.654704,-73.941089,317,40,3107846,3048440001,814,BK1703,"(40.654704, -73.941089)"
H.S. @ 13-20 124 STREET - QUEENS,Q,78,Demo,3954452,CAP,Q510,13-20 124 STREET,Queens,11356,QUEENS,40.786356,-73.843876,407,19,4096962,4039980001,947,QN0701,"(40.786356, -73.843876)"
P.S. 149 - BROOKLYN,K,19,EXTERIOR MASONRY / PARAPETS / ROOFS,2318000,CIP,K848,373 PENNSYLVANIA AVENUE,Brooklyn,11207,BROOKLYN,40.668362,-73.894954,305,42,3084298,3037720006,1156,BK0502,"(40.668362, -73.894954)"
J.H.S. 50 - BROOKLYN,K,14,PLANYC BOILER CONVERSION / PLANYC CLIMATE CONTROL,7940000,CIP,K050,183 SOUTH 3 STREET,Brooklyn,11211,BROOKLYN,40.711704,-73.960275,301,34,3063128,3024190001,523,BK0102,"(40.711704, -73.960275)"
JAMES BALDWIN SCHOOL - MANHATTAN,M,2,EXTERIOR MASONRY / FLOOD ELIMINATION / ROOFS,9700000,CIP,M440,351 WEST 18 STREET,Manhattan,10011,MANHATTAN,40.742867,-74.002136,104,3,1013096,1007420007,89,MN0401,"(40.742867, -74.002136)"
TOTTENVILLE HS - STATEN ISLAND,R,31,PLANYC BOILER CONVERSION / PLANYC CLIMATE CONTROL / WATER INFILTRATION IN OIL TANK ROOM,12699000,CIP,R455,100 LUTEN AVENUE,Staten Island,10312,STATEN IS,40.528092,-74.192032,503,51,5082634,5066130001,198,SI0304,"(40.528092, -74.192032)"
P.S. 87 - MANHATTAN,M,3,EXTERIOR DOORS / EXTERIOR MASONRY / PARAPETS / PLANYC BOILER CONVERSION / PLANYC CLIMATE CONTROL / ROOFS / RPZ BACKFLOW PREVENTION DEVICES / WINDOWS,23719000,CIP,M087,160 WEST 78 STREET,Manhattan,10024,MANHATTAN,40.781958,-73.977638,107,6,1030196,1011490007,161,MN0702,"(40.781958, -73.977638)"
P.S. 111 - QUEENS,Q,30,EXTERIOR MASONRY / FLOOD ELIMINATION / ROOFS,7508060,CIP,Q111,37-15 13 STREET,Queens,11101,QUEENS,40.758831,-73.93938,401,26,4004419,4003630001,43,QN0105,"(40.758831, -73.93938)"
P.S. 268 - BROOKLYN,K,18,EXTERIOR MASONRY / PARAPETS / ROOFS / WINDOWS,14600000,CIP,K268,133 EAST 53 STREET,Brooklyn,11203,BROOKLYN,40.657131,-73.928018,317,41,3100292,3046230028,866,BK1703,"(40.657131, -73.928018)"
STUYVESANT HS - MANHATTAN,M,2,BMS UPGRADE / COOLING TOWER REPLACEMENT / LOW VOLTAGE ELECTRICAL SYSTEM / VENTILATION,11156000,CIP,M477,345 CHAMBERS STREET,Manhattan,10282,MANHATTAN,40.7177,-74.01399,101,1,1084587,1000160215,31703,MN0101,"(40.7177, -74.01399)"
P.S. 96 - QUEENS,Q,27,EXISTING BUILDING RENOVATION WORK / EXISTING BUILDING-AUDITORIUM / EXISTING BUILDING-CAFETERIA,6006920,CIP,Q096,130-17 ROCKAWAY BOULEVARD,Queens,11420,QUEENS,40.674977,-73.808245,410,28,4000000,4116940027,180,QN1001,"(40.674977, -73.808245)"
BERGTRAUM HS - MANHATTAN,M,2,LSP- LIGHTING UPGRADE,209800,CIP,M520,411 PEARL STREET,Manhattan,10038,MANHATTAN,40.711442,-74.000851,101,1,1001388,1001130100,2901,MN0102,"(40.711442, -74.000851)"
P.S. 220 - QUEENS,Q,28,FLOOD ELIMINATION / PLANYC BOILER CONVERSION / PLANYC CLIMATE CONTROL,6120000,CIP,Q220,62-10 108 STREET,Queens,11375,QUEENS,40.736524,-73.851455,406,24,4051290,4021430001,745,QN0602,"(40.736524, -73.851455)"
THE HARBOR VIEW SCHOOL - R,R,31,FY22 RESO A (MA) PLAYGROUND UPGRADE,275000,CIP,R059,300 RICHMOND TERRACE,Staten Island,10301,STATEN IS,40.64789,-74.083406,501,49,5000126,5000140032,7,SI0101,"(40.64789, -74.083406)"
I.S. 2 - BROOKLYN,K,17,CLIMATE CONTROL / CONDENSING UNITS DX COILS REPLACEMENT / EXTERIOR MASONRY / LOW-VOLTAGE ELECTRICAL SYSTEM / PARAPETS / ROOFS / VENTILATION,12555000,CIP,K002,655 PARKSIDE AVENUE,Brooklyn,11226,BROOKLYN,40.656183,-73.951583,309,40,3378201,3050500051,802,BK0902,"(40.656183, -73.951583)"
P.S. 180 - BROOKLYN,K,20,EXTERIOR MASONRY / FLOOD ELIMINATION / FULL PROGRAM ACCESSIBILITY,22935000,CIP,K180,5601 16 AVENUE,Brooklyn,11204,BROOKLYN,40.627029,-73.989672,312,44,3130809,3054920001,470,BK1202,"(40.627029, -73.989672)"
P.S. 186 - QUEENS,Q,26,EXTERIOR DOORS / EXTERIOR MASONRY / PARAPETS / ROOFS / WINDOWS,12200000,CIP,Q186,252-12 72 AVENUE,Queens,11426,QUEENS,40.750007,-73.721607,413,23,4173640,4084010375,155103,QN1301,"(40.750007, -73.721607)"
P.S. 239 - QUEENS,Q,24,LSP DOMESTIC WATER HEATER,165984.08,CIP,Q239,17-15 WEIRFIELD STREET,Queens,11385,QUEENS,40.699149,-73.903799,405,34,4435561,4035610001,553,QN0502,"(40.699149, -73.903799)"
K036 SPED - BROOKLYN,K,19,IPDVS INSTALLATIONS,404599,CIP,K857,2045 LINDEN BOULEVARD,Brooklyn,11207,BROOKLYN,40.660134,-73.887023,305,42,3097429,3043270024,1104,BK0503,"(40.660134, -73.887023)"
P.S. 199 - BROOKLYN,K,21,EXTERIOR MASONRY / PARAPETS / ROOFS / WINDOWS,13572000,CIP,K199,1100 ELM AVENUE,Brooklyn,11230,BROOKLYN,40.616632,-73.963476,314,44,3180761,3067400025,768,BK1403,"(40.616632, -73.963476)"
K721 SPED - BROOKLYN,K,21,EXTERIOR MASONRY / FLOOD ELIMINATION / ROOFS,4299786,CIP,K722,64 AVENUE X,Brooklyn,11223,BROOKLYN,40.589317,-73.98131,313,47,3385667,3071850020,308,BK1301,"(40.589317, -73.98131)"
FIORELLO LAGUARDIA HS - MANHATTAN,M,3,FIRE SPRINKLER SYSTEM / RPZ BACKFLOW PREVENTION DEVICES,1997798,CIP,M485,100 AMSTERDAM AVENUE,Manhattan,10023,MANHATTAN,40.773629,-73.985273,107,6,1030341,1011560030,15101,MN0701,"(40.773629, -73.985273)"
P.S. 23 - BROOKLYN,K,14,EXTERIOR MASONRY / FLOOD ELIMINATION / PARAPETS / ROOFS,5970000,CIP,K023,545 WILLOUGHBY AVENUE,Brooklyn,11206,BROOKLYN,40.69407,-73.94756,303,36,3048818,3017590013,25901,BK0301,"(40.69407, -73.94756)"
I.S. 529 - BRONX,X,11,ELECTRICAL WORK FOR A/C INITIATIVE / LSP LL26 CODE COMPLIANCE/EXIT SIGN REPLACEMENT,115999,CIP,X142,3750 BAYCHESTER AVENUE,Bronx,10466,BRONX,40.884953,-73.840524,212,12,2066190,2049350001,48402,BX1202,"(40.884953, -73.840524)"
P.S. 134 - QUEENS,Q,29,LSP- DOMESTIC HOT WATER HEATER,33744.76,CIP,Q134,203-02 109TH AVENUE,Queens,11412,QUEENS,40.70799,-73.755269,412,27,4440330,4109060001,508,QN1206,"(40.70799, -73.755269)"
P.S. 114 - BRONX,X,9,IPDVS CAMERA INSTALLATION,476800,CIP,X114,1155 CROMWELL AVENUE,Bronx,10452,BRONX,40.834776,-73.923067,204,16,2003022,2024950100,6302,BX0491,"(40.834776, -73.923067)"
I.S. 227 - QUEENS,Q,30,FY19 RESO A AUDITORIUM UPGRADE,1665000,CIP,Q227,32-02 JUNCTION BOULEVARD,Queens,11369,QUEENS,40.758408,-73.874472,403,21,4034891,4014230001,353,QN0302,"(40.758408, -73.874472)"
I.S. 129 - BRONX,X,12,PLANYC BOILER CONVERSION / PLANYC CLIMATE CONTROL,9220000,CIP,X129,2055 MAPES AVENUE,Bronx,10460,BRONX,40.845878,-73.886184,206,15,2012957,2031090001,371,BX0602,"(40.845878, -73.886184)"
BROOKLYN TECH HS - K,K,13,EXTERIOR MASONRY / PARAPETS / PAVED AREAS CONCRETE / ROOFS / WINDOWS,23760000,CIP,K430,29 FT GREENE PLACE,Brooklyn,11217,BROOKLYN,40.688834,-73.976905,302,35,3058752,3020980013,33,BK0203,"(40.688834, -73.976905)"
I.S. 24 - STATEN ISLAND,R,31,FLOOD ELIMINATION / GYM ROOF,2490500,CIP,R024,750 DURANT AVENUE,Staten Island,10308,STATEN IS,40.546081,-74.14584,503,51,5065854,5051530108,13203,SI0302,"(40.546081, -74.14584)"
P.S. 11 - BRONX,X,9,EXTERIOR DOORS / EXTERIOR MASONRY / FLOOD ELIMINATION / PARAPETS / ROOFS / SECURITY LIGHTING / WINDOWS,12733000,CIP,X011,1257 OGDEN AVENUE,Bronx,10452,BRONX,40.839378,-73.925714,204,16,2003519,2025290081,201,BX0402,"(40.839378, -73.925714)"
P.S. 78 - QUEENS,Q,30,IPDVS INSTALLATIONS,319111,CIP,Q868,48-09 CENTER BOULEVARD,Queens,11109,QUEENS,40.744753,-73.957971,402,26,4000019,4000180001,101,QN0201,"(40.744753, -73.957971)"
THE QUEENS SCHOOL OF INQUIRY-Q,Q,25,PA SYSTEM REPLACEMENT,718000,CIP,Q168,158-40 76 ROAD,Queens,11366,QUEENS,40.724458,-73.810216,408,24,4147847,4068260001,1257,QN0802,"(40.724458, -73.810216)"
CORNERSTONE ACADEMY FOR SOCIAL ACTION MIDDLE SCHOO,X,11,FY20 RESO A ROOM CONVERSION,283000,CIP,X189,3441 STEENWICK AVENUE,Bronx,10475,BRONX,40.883025,-73.830366,212,12,2124548,2052630192,46209,BX1202,"(40.883025, -73.830366)"
AUGUST MARTIN HS - QUEENS,Q,27,LL 26-EXIT SIGNS / LL 41/16 COMPLIANCE (004961) / LL 41/16 COMPLIANCE (004964) / LL 41/16 COMPLIANCE (004966) / LL 41/16 COMPLIANCE (004967) / LL 41/16 COMPLIANCE (004968) / LL 41/16 COMPLIANCE (004969) / LL 41/16 COMPLIANCE (004970) / LL 41/16 COMPLIANC,1798106.71,CIP,Q400,156-10 BAISLEY BOULEVARD,Queens,11434,QUEENS,40.675633,-73.783342,412,28,4265978,4122610001,294,QN1204,"(40.675633, -73.783342)"
SCHOOL FOR ENVIR CITIZEN - BRONX,X,10,FY21 RESO A ROOM CONVERSION / FY21 RESO A SUPPLEMENTAL COOLING,1073000,CIP,X079,125 EAST 181 STREET,Bronx,10453,BRONX,40.854872,-73.903458,205,14,2013849,2031700001,23704,BX0503,"(40.854872, -73.903458)"
P.S. 203 - QUEENS,Q,26,WINDOWS,3880000,CIP,Q203,53-11 SPRINGFIELD BOULEVARD,Queens,11364,QUEENS,40.754201,-73.760636,411,23,4161005,4074820317,138501,QN1102,"(40.754201, -73.760636)"
P.S. 111 - BRONX,X,11,PLANYC BOILER CONVERSION / PLANYC CLIMATE CONTROL,5972000,CIP,X111,3740 BAYCHESTER AVENUE,Bronx,10466,BRONX,40.884343,-73.840254,212,12,2065992,2049160001,48401,BX1202,"(40.884343, -73.840254)"
P.S. 861 - STATEN ISLAND,R,31,FY21 RESO A PLAYGROUND UPGRADE,238451,CIP,R861,280 REGIS DRIVE,Staten Island,10314,STATEN IS,40.620676,-74.164277,501,49,5032481,5016530001,30301,SI0107,"(40.620676, -74.164277)"
P.S. 503 - BROOKLYN,K,20,LSP FY16 RESO A EXTERIOR PLAYGROUND LIGHTING,198825,CIP,K314,330 59 STREET,Brooklyn,11220,BROOKLYN,40.642121,-74.018997,307,38,3016258,3008620012,74,BK0702,"(40.642121, -74.018997)"
P.S. 251 - BROOKLYN,K,22,ELECTRICAL WORK FOR A/C INITIATIVE,7216,CIP,K251,1037 EAST 54 STREET,Brooklyn,11234,BROOKLYN,40.632524,-73.924417,318,45,3214729,3077580001,722,BK1801,"(40.632524, -73.924417)"
BRONX HS FOR THE VISUAL ARTS - BRONX,X,11,STANDALONE GYM ANNEX,21866000,CIP,X482,2030 ANTIN PLACE,Bronx,10462,BRONX,40.851285,-73.865184,211,13,2000000,2042900032,228,BX1101,"(40.851285, -73.865184)"
GROVER CLEVELAND HS - QUEENS,Q,24,LSP DOMESTIC WATER HEATER,12764.41,CIP,Q485,21-27 HIMROD STREET,Queens,11385,QUEENS,40.711033,-73.908814,405,30,4080227,4033630001,59501,QN0502,"(40.711033, -73.908814)"
H.S. 745 - BROOKLYN,K,17,EXTERIOR MASONRY / PARAPETS / ROOFS / WINDOWS,38279000,CIP,K470,600 KINGSTON AVENUE,Brooklyn,11203,BROOKLYN,40.658893,-73.942458,309,40,3107227,3048110001,810,BK0902,"(40.658893, -73.942458)"
P.S. 41 - QUEENS,Q,26,Demo,1007272,CAP,Q041,34-06 214 LANE,Queens,11361,QUEENS,40.769875,-73.770692,411,19,4135975,4061210001,1093,QN1102,"(40.769875, -73.770692)"
P.S. 196 - QUEENS,Q,28,Addition,34522000,CAP,Q196,71-25 113 STREET,Queens,11375,QUEENS,40.722782,-73.837946,406,29,4052713,4022480100,75702,QN0602,"(40.722782, -73.837946)"
P.S. 29 - QUEENS,Q,25,LSP DOMESTIC WATER HEATER REPLACEMENT,124691.03,CIP,Q029,125-10 23 AVENUE,Queens,11356,QUEENS,40.778601,-73.843187,407,19,4099925,4042290014,907,QN0701,"(40.778601, -73.843187)"
BROOKLYN COMMUNITY ARTS & MEDIA HIGH SCHOOL (BCAM),K,13,RPZ BACKFLOW PREVENTION DEVICES,449000,CIP,K117,300 WILLOUGHBY AVENUE,Brooklyn,11205,BROOKLYN,40.692642,-73.958794,303,33,3055165,3019260010,235,BK0301,"(40.692642, -73.958794)"
P.S. 92 - QUEENS,Q,30,ROOFS,3943675,CIP,Q292,99-01 34TH AVENUE,Queens,11368,QUEENS,40.755418,-73.869017,403,21,4042496,4017140018,377,QN0303,"(40.755418, -73.869017)"
M811 SPED - MANHATTAN,M,3,ROOFS,5635838,CIP,M841,466 WEST END AVENUE,Manhattan,10024,MANHATTAN,40.786611,-73.97951,107,6,1032754,1012300001,171,MN0702,"(40.786611, -73.97951)"
SALVATION ARMY SUTTER DAY CARE,K,23,ACS EARLY LEARN LEASE IMPROVEMENT,677000,CIP,KBDD,20 SUTTER AVENUE,Brooklyn,11212,BROOKLYN,40.665361,-73.922177,316,41,3081165,3035310023,900,BK1602,"(40.665361, -73.922177)"
P.S. 307 - BROOKLYN,K,13,RENOVATION OF CLASSROOM 332,255965,CIP,K307,209 YORK STREET,Brooklyn,11201,BROOKLYN,40.701343,-73.982314,302,33,3000158,3000560007,21,BK0202,"(40.701343, -73.982314)"
ANNEX @ 57 CLEVELAND PLACE - STATEN ISLAND,R,31,Demo,9498000,CAP,R126,57 CLEVELAND PLACE,Staten Is,10305,STATEN IS,40.602182,-74.068818,502,50,5108458,5030870001,2002,SI0201,"(40.602182, -74.068818)"
P.S. 57 - MANHATTAN,M,4,FULL PROGRAM ACCESSIBILITY,12461000,CIP,M057,176 EAST 115 STREET,Manhattan,10029,MANHATTAN,40.797577,-73.94128,111,8,1083184,1016400139,182,MN1102,"(40.797577, -73.94128)"
P.S. 169 - BROOKLYN,K,15,EXTERIOR MASONRY / PARAPETS / ROOF REPLACEMENT / WINDOWS,14790025,CIP,K169,4305 7 AVENUE,Brooklyn,11232,BROOKLYN,40.64629,-74.001903,307,38,3011002,3007320001,9201,BK0703,"(40.64629, -74.001903)"
LOWER EAST SIDE PREP HS - M,M,1,EXTERIOR MASONRY / PARAPETS / REINFORCING SUPPORT ELEMENTS / ROOFS,11100000,CIP,M025,145 STANTON STREET,Manhattan,10002,MANHATTAN,40.720581,-73.985645,103,1,1004323,1003540080,3001,MN0302,"(40.720581, -73.985645)"
P.S. 122 - QUEENS,Q,30,FY16 RESO A SOLAR PANELS,989000,CIP,Q122,21-21 DITMARS BOULEVARD,Queens,11105,QUEENS,40.780347,-73.916655,401,22,4019633,4008800001,103,QN0101,"(40.780347, -73.916655)"
P.S. 63 - QUEENS,Q,27,RTU REPLACEMENT,1987000,CIP,Q063,90-15 SUTTER AVENUE,Queens,11417,QUEENS,40.67641,-73.846773,410,32,4190727,4091550025,54,QN1002,"(40.67641, -73.846773)"
I.S. 839 - MANHATTAN,M,1,EXTERIOR MASONRY / FLOOD ELIMINATION / PARAPETS / ROOFS,10550000,CIP,M064,600 EAST 6 STREET,Manhattan,10009,MANHATTAN,40.724435,-73.981521,103,2,1004627,1003870001,2601,MN0303,"(40.724435, -73.981521)"
P.S. 277 - BROOKLYN,K,22,FY18 RESO A SCIENCE LAB UPGRADES,277000,CIP,K277,2529 GERRITSEN AVENUE,Brooklyn,11229,BROOKLYN,40.596145,-73.928793,318,46,3242369,3085900650,666,BK1891,"(40.596145, -73.928793)"
J.H.S. 216 - QUEENS,Q,26,PLANYC BOILER CONVERSION / PLANYC CLIMATE CONTROL,6000761,CIP,Q216,64-20 175 STREET,Queens,11365,QUEENS,40.737517,-73.794031,408,24,4149078,4069030001,1341,QN0803,"(40.737517, -73.794031)"
P.S./I.S. @ 3761 10 AVENUE - MANHATTAN,M,6,New,101843000,CAP,M502,3761 10 AVENUE,Manhattan,10034,MANHATTAN,40.860962,-73.921475,112,10,1000000,1021980001,299,MN1203,"(40.860962, -73.921475)"
P.S. 84 - BROOKLYN,K,14,PLANYC BOILER CONVERSION / PLANYC CLIMATE CONTROL,6230000,CIP,K084,250 BERRY STREET,Brooklyn,11249,BROOKLYN,40.714785,-73.963,301,34,3062766,3023910001,551,BK0102,"(40.714785, -73.963)"
P.S. 127 - BROOKLYN,K,20,EXTERIOR MASONRY / PARAPETS / PHASE 3 VOLUNTARY ADA/ROOM CONVERSION WORK / PLANYC BOILER CONVERSION / PLANYC CLIMATE CONTROL / ROOFS / WINDOWS,25625000,CIP,K127,922 78 STREET,Brooklyn,11228,BROOKLYN,40.623762,-74.017799,310,38,3150481,3059730001,206,BK1002,"(40.623762, -74.017799)"
P.S./I.S. 266 - QUEENS,Q,26,LSP HOT WATER HEATER,74000,CIP,Q266,74-10 COMMONWEALTH BOULEVARD,Queens,11426,QUEENS,40.746231,-73.727614,413,23,4529900,4078700074,1567,QN1302,"(40.746231, -73.727614)"
P.S. 150 - QUEENS,Q,30,EXTERIOR MASONRY / FLOOD ELIMINATION / PARAPETS / ROOFS,8888000,CIP,Q150,40-01 43 AVENUE,Queens,11104,QUEENS,40.745537,-73.923776,402,26,4002387,4001850001,18101,QN0202,"(40.745537, -73.923776)"
P.S. 116 - QUEENS,Q,29,Addition,59387029,CAP,Q116,107-25 WREN PLACE,Queens,11433,QUEENS,40.700606,-73.782302,412,27,4218416,4102500001,414,QN1202,"(40.700606, -73.782302)"
P.S. 10 - BROOKLYN,K,15,EXTERIOR MASONRY / FLOOD ELIMINATION / PARAPETS / ROOFS / WINDOWS,16664000,CIP,K010,511 7 AVENUE,Brooklyn,11215,BROOKLYN,40.661061,-73.986534,307,39,3016509,3008690001,14902,BK0701,"(40.661061, -73.986534)"
P.S. 39 - STATEN ISLAND,R,31,EXTERIOR MASONRY / FLOOD ELIMINATION / ROOFS,3347318,CIP,R039,99 MACFARLAND AVENUE,Staten Island,10305,STATEN IS,40.597653,-74.070052,502,50,5045488,5030970014,2002,SI0201,"(40.597653, -74.070052)"
EAGLE ACADEMY FOR YOUNG MEN OF HARLEM,M,5,COVID VENTILATION,159264,CIP,M136,6 EDGECOMBE AVENUE,Manhattan,10030,MANHATTAN,40.817372,-73.947712,110,9,1059460,1019600001,22102,MN1002,"(40.817372, -73.947712)"
P.S. 209 - BROOKLYN,K,21,EXTERIOR MASONRY / FLOOD ELIMINATION / PARAPETS / ROOFS / WINDOWS,24160000,CIP,K209,2609 EAST 7TH STREET,Brooklyn,11235,BROOKLYN,40.586845,-73.96198,313,48,3196224,3072440001,370,BK1301,"(40.586845, -73.96198)"
NEWTOWN HS - QUEENS,Q,24,ELECTRICAL WORK FOR A/C INITIATIVE / LSP LL26 CODE COMPLIANCE/EXIT SIGN REPLACEMENT,1180000,CIP,Q455,48-01 90 STREET,Queens,11373,QUEENS,40.741122,-73.874721,404,25,4045629,4018490001,461,QN0401,"(40.741122, -73.874721)"
THURGOOD MARSHALL ACADEMY - MANHATTAN,M,5,IPDVS INSTALLATIONS,697000,CIP,M970,200-214 WEST 135 STREET,Manhattan,10030,MANHATTAN,40.815449,-73.944061,110,9,1058843,1019400035,228,MN1002,"(40.815449, -73.944061)"
P.S. 166 - MANHATTAN,M,3,MASONRY / PARAPETS / ROOFS / WINDOWS,19337000,CIP,M166,132 WEST 89 STREET,Manhattan,10024,MANHATTAN,40.788865,-73.971847,107,6,1032308,1012190047,173,MN0702,"(40.788865, -73.971847)"
P.S. 95 - BRONX,X,10,ELECTRICAL WORK FOR A/C INITIATIVE / LSP LL26 CODE COMPLIANCE/EXIT SIGN REPLACEMENT,76000,CIP,X095,3961 HILLMAN AVENUE,Bronx,10463,BRONX,40.882898,-73.891256,208,11,2015472,2032520182,281,BX0801,"(40.882898, -73.891256)"
I.S. 239 - BROOKLYN,K,21,EXTERIOR MASONRY / FLOOD ELIMINATION / PARAPETS / ROOFS / WINDOWS,27000000,CIP,K239,2401 NEPTUNE AVENUE,Brooklyn,11224,BROOKLYN,40.578188,-73.99203,313,47,3188221,3069650140,330,BK1302,"(40.578188, -73.99203)"
SCHOOL OF THE FUTURE BROOKLYN,K,19,FY20 RESO A LIBRARY UPGRADE,40000,CIP,K174,574 DUMONT AVENUE,Brooklyn,11207,BROOKLYN,40.665798,-73.897723,305,42,3084617,3038020015,1130,BK0503,"(40.665798, -73.897723)"
CLARA BARTON HS - K,K,17,IPDVS CAMERA INSTALLATION,395000,CIP,K600,901 CLASSON AVENUE,Brooklyn,11225,BROOKLYN,40.669567,-73.961962,309,35,3029702,3011880001,213,BK0901,"(40.669567, -73.961962)"
3K CENTER @ 10 ELM STREET - STATEN ISLAND,R,31,Lease,9188000,CAP,R074,10 ELM STREET,Staten Is,10310,STATEN IS,40.641761,-74.114913,501,49,5168587,5001580006,9701,SI0104,"(40.641761, -74.114913)"
I.S. 59 - QUEENS,Q,29,EXTERIOR MASONRY / PARAPETS / ROOFS,9642800,CIP,Q059,132-55 RIDGEDALE STREET,Queens,11413,QUEENS,40.68173,-73.753429,412,27,4274083,4127230076,352,QN1205,"(40.68173, -73.753429)"
THOMAS A. EDISON HS - Q,Q,28,STRUCTURAL REPAIR OF Q620 GYM,621000,CIP,Q620,165-65 84 AVENUE,Queens,11432,QUEENS,40.715389,-73.800369,408,24,4211027,4098670002,452,QN0805,"(40.715389, -73.800369)"
M.S. 282 - QUEENS,Q,27,LSP- DOMESTIC WATER HEATER,141664.07,CIP,Q465,8-21 BAY 25 STREET,Queens,11691,QUEENS,40.60201,-73.762795,414,31,4300730,4157360001,100804,QN1401,"(40.60201, -73.762795)"
M079 SPED - MANHATTAN,M,5,IPDVS INSTALLATIONS,385048.3,CIP,M079,55 EAST 120 STREET,Manhattan,10035,MANHATTAN,40.802419,-73.942634,111,9,1053968,1017470001,198,MN1102,"(40.802419, -73.942634)"
P.S. 17 - BROOKLYN,K,14,CERTIFICATE OF OCCUPANCY / FIRE ALARM SYSTEM REPLACEMENT,17518000,CIP,K017,208 NORTH 5 STREET,Brooklyn,11211,BROOKLYN,40.715351,-73.956716,301,34,3062337,3023450001,519,BK0102,"(40.715351, -73.956716)"
IT TAKES A VILLAGE ACADEMY - K,K,18,FY21 RESO A AUDITORIUM UPGRADE,80000,CIP,K415,5800 TILDEN AVENUE,Brooklyn,11203,BROOKLYN,40.648657,-73.922171,317,45,3104598,3047420001,936,BK1703,"(40.648657, -73.922171)"
P.S. 98 - QUEENS,Q,26,FLOOD ELIMINATION,547000,CIP,Q098,40-20 235 STREET,Queens,11363,QUEENS,40.769271,-73.749369,411,19,4168629,4080820285,1483,QN1103,"(40.769271, -73.749369)"
P.S. 19 - QUEENS,Q,24,FY20 RESO A AUDITORIUM UPGRADE / FY20 RESO A PATH OF TRAVEL AUDITORIUM UPGRADE,1617000,CIP,Q019,40-10 99TH STREET,Queens,11368,QUEENS,40.749108,-73.866362,404,21,4607476,4016070001,40901,QN0402,"(40.749108, -73.866362)"
HS FOR HEALTH CAREER & SCIENCE - M,M,6,WATER MAIN- BACKFLOW ISSUE,890000,CIP,M465,549 AUDUBON AVENUE,Manhattan,10040,MANHATTAN,40.855855,-73.92712,112,10,1076751,1021600018,277,MN1202,"(40.855855, -73.92712)"
BENJAMIN N. CARDOZO HS - QUEENS,Q,26,AUDITORIUM CEILING,2445000,CIP,Q415,57-00 223 STREET,Queens,11364,QUEENS,40.752333,-73.75599,411,23,4161735,4075290001,138501,QN1102,"(40.752333, -73.75599)"
Q256 SPED - QUEENS,Q,27,PHASE III  WORK- DEMO AND PLAYGROUND REDEVELOPMENT,7275970,CIP,Q816,445 BEACH 135 STREET,Queens,11694,QUEENS,40.577026,-73.854539,414,32,4305631,4162580006,928,QN1403,"(40.577026, -73.854539)"
I.S. 131 - MANHATTAN,M,2,LSP DANCE FLOOR REPLACEMENT,91150,CIP,M131,100 HESTER STREET,Manhattan,10002,MANHATTAN,40.716553,-73.993092,103,1,1082489,1003010003,16,MN0301,"(40.716553, -73.993092)"
P.S. 183 - MANHATTAN,M,2,IPDVS CAMERA INSTALLATION / IPDVS INSTALLATIONS / NYS IPDVS NEW INSTALLATION,565000,CIP,M183,419 EAST 66 STREET,Manhattan,10065,MANHATTAN,40.763736,-73.95815,108,5,1045569,1014610007,116,MN0801,"(40.763736, -73.95815)"
P.S. 153 - BRONX,X,11,EXTERIOR MASONRY / FIRE ALARM SYSTEM REPLACEMENT / FLOOD ELIMINATION / PARAPETS / ROOFS / RTU REPLACEMENT / WINDOWS,24207000,CIP,X153,650 BAYCHESTER AVENUE,Bronx,10475,BRONX,40.872608,-73.833727,210,12,2097470,2051410150,46205,BX1004,"(40.872608, -73.833727)"
P.S. 87 - BRONX,X,11,EXISTING SCHOOL RENOVATION WORK,4415061.85,CIP,X087,4200 GRACE AVE,Bronx,10466,BRONX,40.895179,-73.846435,212,12,2123153,2050180001,428,BX1203,"(40.895179, -73.846435)"
P.S. 181 - QUEENS,Q,29,EXTERIOR MASONRY / FLOOD ELIMINATION / PLAYGROUND REDEVELOPMENT / ROOFS,9089000,CIP,Q181,148-15 230 STREET,Queens,11413,QUEENS,40.656126,-73.753207,413,31,4291453,4137180001,694,QN1306,"(40.656126, -73.753207)"
P.S. 117 - QUEENS,Q,28,FY21 RESO A AUDITORIUM UPGRADE / PATH OF TRAVEL RESO A AUDITORIUM UPGRADE,729000,CIP,Q117,85-15 143RD STREET,Queens,11435,QUEENS,40.709463,-73.813376,408,24,4208040,4097230150,232,QN0805,"(40.709463, -73.813376)"
CITY-AS-SCHOOL - MANHATTAN,M,2,AUDITORIUM DUCTWORK / AUDITORIUM UPGRADE / EXTERIOR MASONRY / FLOOD ELIMINATION / PARAPETS / PATH OF TRAVEL AUDITORIUM UPGRADE / ROOFS / WINDOWS,25622000,CIP,M641,16 CLARKSON STREET,Manhattan,10014,MANHATTAN,40.729412,-74.006242,102,3,1009757,1005810054,67,MN0203,"(40.729412, -74.006242)"
ALC-JANE ADDAMS HS,X,8,IPDVS CAMERA INSTALLATION,230000,CIP,X650,900 TINTON AVENUE,Bronx,10456,BRONX,40.821675,-73.903546,203,17,2004807,2026680001,133,BX0301,"(40.821675, -73.903546)"
P.S. 131 - QUEENS,Q,29,LSP DOMESTIC WATER HEATER REPLACEMENT,176818.72,CIP,Q131,170-21 84TH AVENUE,Queens,11432,QUEENS,40.716609,-73.794666,408,24,4620845,4098750001,456,QN0805,"(40.716609, -73.794666)"
P.S. 125 - MANHATTAN,M,5,FY18 RESO A PLAYGROUNDS,2047975,CIP,M125,425 WEST 123 STREET,Manhattan,10027,MANHATTAN,40.810431,-73.955809,109,7,1059526,1019640012,20901,MN0901,"(40.810431, -73.955809)"
NEWCOMERS HIGH SCHOOL - Q,Q,30,AUDITORIUM SEAT UPGRADE / COVID FIRE ALARM SYSTEM REPLACEMENT / COVID VENTILATION / PATH OF TRAVEL AUDITORIUM SEAT UPGRADE,8565200,CIP,Q450,28-01 41ST AVENUE,Queens,11101,QUEENS,40.751356,-73.937445,401,26,4004874,4004040001,3301,QN0105,"(40.751356, -73.937445)"
P.S. 399 - BROOKLYN,K,17,EXTERIOR MASONRY / PARAPETS / ROOFS / RTU REPLACEMENT / STANDALONE DDC CONTROLS / WINDOWS,8174000,CIP,K399,2707 ALBEMARLE ROAD,Brooklyn,11226,BROOKLYN,40.648044,-73.951891,317,40,3117396,3051110001,824,BK1701,"(40.648044, -73.951891)"
P.S. 36 - BRONX,X,8,ELECTRICAL WORK FOR A/C INITIATIVE,5455.09,CIP,X036,1070 CASTLE HILL AVENUE,Bronx,10472,BRONX,40.829344,-73.850428,209,18,2026706,2038170001,78,BX0903,"(40.829344, -73.850428)"
P.S. 75 - BRONX,X,8,EXTERIOR MASONRY / FLOOD ELIMINATION / PARAPETS / ROOFS / WINDOWS,35816450,CIP,X075,984 FAILE STREET,Bronx,10459,BRONX,40.822719,-73.889435,202,17,2006079,2027470001,119,BX0202,"(40.822719, -73.889435)"
I.S. 291 - BROOKLYN,K,32,IDA FLOOD ELIMINATION / IDA INTERIOR SPACES / PATH OF TRAVEL NON-IDA FLOOD ELIMINATION,7134750,CIP,K291,231 PALMETTO STREET,Brooklyn,11221,BROOKLYN,40.695362,-73.915142,304,37,3076460,3033430001,433,BK0402,"(40.695362, -73.915142)"
P.S. 205 - BROOKLYN,K,20,IPDVS CAMERA INSTALLATION,438000,CIP,K205,6701 20 AVENUE,Brooklyn,11204,BROOKLYN,40.61527,-73.987149,311,43,3134749,3055710001,256,BK1101,"(40.61527, -73.987149)"
HERBERT H. LEHMAN HS - X,X,8,GAS METER ROOM COMPLIANCE PROJECT,14432,CIP,X405,3000 EAST TREMONT AVENUE,Bronx,10461,BRONX,40.840733,-73.838685,210,13,2074045,2053680001,194,BX1002,"(40.840733, -73.838685)"
HS FOR HEALTH CAREER & SCIENCE - M,M,6,LL 26-EXIT SIGNS,157564.59,CIP,M465,549 AUDUBON AVENUE,Manhattan,10040,MANHATTAN,40.855855,-73.92712,112,10,1076751,1021600018,277,MN1202,"(40.855855, -73.92712)"
P.S. 163 - QUEENS,Q,25,FLOOD ELIMINATION,667000,CIP,Q163,159-01 59 AVENUE,Queens,11365,QUEENS,40.740565,-73.809131,407,20,4146042,4067260070,1215,QN0706,"(40.740565, -73.809131)"
P.S. 14 - QUEENS,Q,24,LSP- DOMESTIC WATER HEATER,191578.18,CIP,Q014,107-01 OTIS AVENUE,Queens,11368,QUEENS,40.74056,-73.854131,404,21,4437311,4019540037,439,QN0402,"(40.74056, -73.854131)"
P.S. 123 - QUEENS,Q,27,FY19 RESO A LIBRARY UPGRADE / PATH OF TRAVEL RESO A LIBRARY UPGRADE,374800,CIP,Q123,145-01 119 AVENUE,Queens,11436,QUEENS,40.678296,-73.79562,412,28,4260828,4120190010,18402,QN1203,"(40.678296, -73.79562)"
P.S. 182 - BRONX,X,8,ELECTRICAL WORK FOR A/C INITIATIVE,3881.67,CIP,X182,601 STICKBALL BOULEVARD,Bronx,10473,BRONX,40.818228,-73.856302,209,18,2021923,2035640001,16,BX0902,"(40.818228, -73.856302)"
QUEENS TECH HS - Q,Q,24,FY18 RESO A IPDVS CAMERA INSTALLATION,179245,CIP,Q600,37-02 47 AVENUE,Queens,11101,QUEENS,40.742205,-73.928219,402,26,4003259,4002280020,189,QN0202,"(40.742205, -73.928219)"
K371 SPED - BROOKLYN,K,15,LL 26-EXIT SIGNS,18119,CIP,K371,355 37 STREET,Brooklyn,11232,BROOKLYN,40.654293,-74.005889,307,38,3337059,3006960031,84,BK0702,"(40.654293, -74.005889)"
P.S. 85 - QUEENS,Q,30,LSP DOMESTIC WATER HEATER REPLACEMENT,139334.92,CIP,Q085,23-70 31 STREET,Queens,11105,QUEENS,40.772932,-73.914625,401,22,4017485,4008420031,115,QN0101,"(40.772932, -73.914625)"
P.S. 65 - STATEN ISLAND,R,31,CLOCK TOWER REPAIR @ R829 PERMANENT FIX,780000,CIP,R829,98 GRANT STREET,Staten Island,10301,STATEN IS,40.634032,-74.078611,501,49,5013382,5005060081,21,SI0102,"(40.634032, -74.078611)"
P.S. 76 - BRONX,X,11,COVID VENTILATION,259358,CIP,X076,900 ADEE AVENUE,Bronx,10469,BRONX,40.869593,-73.861282,211,12,2054933,2045520010,342,BX1104,"(40.869593, -73.861282)"
I.S. 349 - BROOKLYN,K,32,EXTERIOR MASONRY / ROOFS / WINDOWS,7956000,CIP,K111,35 STARR STREET,Brooklyn,11221,BROOKLYN,40.70069,-73.927481,304,34,3072497,3031850001,423,BK0401,"(40.70069, -73.927481)"
P.S. 47 - QUEENS,Q,27,FIRE ALARM REPLACEMENT,157766.4,CIP,Q047,9 POWER ROAD,Queens,11693,QUEENS,40.606353,-73.820445,414,32,4448968,4153130485,107201,QN1403,"(40.606353, -73.820445)"
UNIVERSITY HEIGHTS HS - BRONX,X,7,ACCESSIBLE RAMP / EXTERIOR MASONRY / ROOFS / TCU REMOVAL/PLAYGROUND REDEVELOPMENT,7343990,CIP,X470,701 ST ANNS AVENUE,Bronx,10455,BRONX,40.81825,-73.91103,201,17,2001153,2023590240,71,BX0102,"(40.81825, -73.91103)"
I.S. 391 - BRONX,X,10,FY23 RESO A IPDVS CAMERA INSTALLATION / IPDVS CAMERA INSTALLATION,389000,CIP,X137,2225 WEBSTER AVENUE,Bronx,10457,BRONX,40.854515,-73.896703,205,15,2013307,2031430043,379,BX0502,"(40.854515, -73.896703)"
BRONX LAB SCHOOL - BRONX,X,11,COVID VENTILATION,6420000,CIP,X425,800 EAST GUN HILL ROAD,Bronx,10467,BRONX,40.875953,-73.86197,212,12,2057045,2046330040,372,BX1201,"(40.875953, -73.86197)"
P.S. 243 - BROOKLYN,K,16,EXTERIOR MASONRY / PARAPETS / ROOFS,5413000,CIP,K243,1580 DEAN STREET,Brooklyn,11213,BROOKLYN,40.676094,-73.935688,308,36,3035761,3013470001,309,BK0802,"(40.676094, -73.935688)"
P.S. 143 - QUEENS,Q,24,AIR CONDITIONING UNIT (RTU) / EXTERIOR MASONRY / FLOOD ELIMINATION / HEATING SYSTEM UPGRADE / PARAPETS / ROOFS / ROOM CONVERSIONS / WINDOWS,32990000,CIP,Q143,34-55 112 STREET,Queens,11368,QUEENS,40.755535,-73.856362,403,21,4614907,4017560025,381,QN0303,"(40.755535, -73.856362)"
P.S. 43 - BRONX,X,7,FY20 RESO A LIBRARY UPGRADE,60000,CIP,X043,165 BROWN PLACE,Bronx,10454,BRONX,40.806351,-73.921196,201,8,2000205,2022800040,25,BX0101,"(40.806351, -73.921196)"
P.S. 19 - MANHATTAN,M,1,IPDVS CAMERA INSTALLATION,644000,CIP,M019,185 1 AVENUE,Manhattan,10003,MANHATTAN,40.729636,-73.983818,103,2,1006478,1004530034,4001,MN0303,"(40.729636, -73.983818)"
P.S. @ 763 PRESIDENT STREET - BROOKLYN,K,15,Lease,21167000,CAP,K347,763 PRESIDENT STREET,Brooklyn,11215,BROOKLYN,40.674465,-73.977497,306,39,3020189,3009570017,157,BK0602,"(40.674465, -73.977497)"
P.S. 306 - BRONX,X,10,EXTERIOR MASONRY / FLOOD ELIMINATION / PARAPETS / ROOFS,17298000,CIP,X306,40 WEST TREMONT AVENUE,Bronx,10453,BRONX,40.851815,-73.91118,205,14,2098721,2028620014,217,BX0501,"(40.851815, -73.91118)"
P.S. 748 - BROOKLYN,K,20,LSP GYM FLOOR REPLACEMENT,125000,CIP,K163,1664 BENSON AVENUE,Brooklyn,11214,BROOKLYN,40.607234,-74.007199,311,47,3167623,3063990026,180,BK1102,"(40.607234, -74.007199)"
P.S. 71 - BRONX,X,8,EXTERIOR MASONRY / FLOOD ELIMINATION / FULL PROGRAM ACCESSIBILITY / KITCHEN EXHAUST REPLACEMENT / LOW-VOLTAGE ELECTRICAL SYSTEM / PARAPETS / ROOFS / TCU REMOVAL/PLAYGROUND REDEVELOPMENT / WINDOWS,39543411,CIP,X071,3040 ROBERTS AVENUE,Bronx,10461,BRONX,40.845787,-73.829829,210,13,2046140,2041710001,26602,BX1003,"(40.845787, -73.829829)"
I.S. 340 - BROOKLYN,K,13,LOW VOLTAGE ELECTRICAL SYSTEMS,873713.01,CIP,K874,227 STERLING PLACE,Brooklyn,11238,BROOKLYN,40.676094,-73.97038,308,35,3029060,3011640057,163,BK0801,"(40.676094, -73.97038)"
3K CENTER @ 48-18 VAN DAM STREET - QUEENS,Q,24,Lease,8992964,CAP,Q444,48-18 VAN DAM STREET,Queens,11101,QUEENS,40.740653,-73.934395,402,26,4003541,4002840001,19902,QN0202,"(40.740653, -73.934395)"
I.S. 241 - BRONX,X,9,ROOF REPLACEMENT,9079000,CIP,X970,1595 BATHGATE AVENUE,Bronx,10457,BRONX,40.839244,-73.901316,203,15,2009555,2029130001,167,BX0302,"(40.839244, -73.901316)"
FRANKLIN D. ROOSEVELT HS - K,K,20,CLIMATE CONTROL / COVID VENTILATION / FIRE ALARM SYSTEM REPLACEMENT / PATH OF TRAVEL STH SBHC / STH SBHC,17848000,CIP,K505,5800 20 AVENUE,Brooklyn,11204,BROOKLYN,40.620446,-73.981795,312,44,3131537,3055060006,468,BK1204,"(40.620446, -73.981795)"
P.S. 138 - BROOKLYN,K,17,EXTERIOR MASONRY / FLOOD ELIMINATION / PARAPETS / ROOFS,7693030,CIP,K138,760 PROSPECT PLACE,Brooklyn,11216,BROOKLYN,40.67438,-73.951443,308,36,3330794,3012330026,31701,BK0802,"(40.67438, -73.951443)"
P.S. 26 - QUEENS,Q,26,EXISTING BUILDING WORK-FIRE ALARM,1834255.8,CIP,Q026,195-02 69 AVENUE,Queens,11365,QUEENS,40.736922,-73.77799,408,23,4153296,4071170421,134702,QN0803,"(40.736922, -73.77799)"
P.S. 91 - BROOKLYN,K,17,ELECTRICAL SYSTEM UPGRADE / EXTERIOR MASONRY / FLOOD ELIMINATION / PARAPETS / ROOFS / WINDOWS,13391000,CIP,K091,532 ALBANY AVENUE,Brooklyn,11203,BROOKLYN,40.661886,-73.93994,309,40,3106599,3047940026,806,BK0902,"(40.661886, -73.93994)"
HILLCREST HS - QUEENS,Q,28,FIRE PROTECTION PLAN,2097000,CIP,Q505,160-05 HIGHLAND AVENUE,Queens,11432,QUEENS,40.709079,-73.801856,408,24,4448767,4097740001,448,QN0805,"(40.709079, -73.801856)"
P.S. 42 - QUEENS,Q,27,EXTERIOR MASONRY / PARAPETS / WINDOWS,15970000,CIP,Q042,488 BEACH 66 STREET,Queens,11692,QUEENS,40.594538,-73.795304,414,31,4302817,4160390014,964,QN1402,"(40.594538, -73.795304)"
P.S. 213 - QUEENS,Q,26,CLIMATE CONTROL / ELECTRICAL UPGRADE / ELECTRIFICATION/HEAT PUMP SYSTEMS / HEATING PLANT UPGRADE / LOW VOLTAGE ELECTRICAL SYSTEM / WATER PENETRATION IN BOILER ROOM,20212000,CIP,Q213,231-02 67 AVENUE,Queens,11364,QUEENS,40.747747,-73.745747,411,23,4163698,4076770001,1377,QN1104,"(40.747747, -73.745747)"
J.H.S. 47 (SCH FOR THE DEAF) - M,M,2,LOW VOLTAGE ELECTRICAL SYSTEM,2773000,CIP,M047,223 EAST 23 STREET,Manhattan,10010,MANHATTAN,40.738548,-73.982455,106,2,1019775,1009040024,64,MN0602,"(40.738548, -73.982455)"
HARRY S. TRUMAN HS - X,X,11,EXTERIOR MASONRY / ROOFS / WINDOWS,18600000,CIP,X455,750 BAYCHESTER AVENUE,Bronx,10475,BRONX,40.874088,-73.833904,210,12,2116159,2051410150,46205,BX1004,"(40.874088, -73.833904)"
P.S. 189 - MANHATTAN,M,6,EXTERIOR MASONRY / FLOOD ELIMINATION / PARAPETS / PLAYGROUND / ROOFS,11745000,CIP,M189,2580 AMSTERDAM AVENUE,Manhattan,10040,MANHATTAN,40.852631,-73.927604,112,10,1076750,1021590051,277,MN1202,"(40.852631, -73.927604)"
P.S. 53 - BRONX,X,9,STH- SBHC,2995000,CIP,X053,360 EAST 168 STREET,Bronx,10456,BRONX,40.832866,-73.911418,204,16,2002299,2024350075,175,BX0401,"(40.832866, -73.911418)"
QUEENS COLLEGIATE SCHOOL - QUEENS,Q,28,LSP- LIGHTING UPGRADE,530267.29,CIP,Q470,167-01 GOTHIC DRIVE,Queens,11432,QUEENS,40.713218,-73.797237,408,24,4448806,4098580100,452,QN0805,"(40.713218, -73.797237)"
K368 SPED - BROOKLYN,K,14,FY22 RESO A GYMNASIUM UPGRADE,372000,CIP,K033,70 TOMPKINS AVENUE,Brooklyn,11206,BROOKLYN,40.697152,-73.946641,303,36,3048517,3017430018,257,BK0301,"(40.697152, -73.946641)"
ABRAHAM LINCOLN HS - BROOKLYN,K,21,FY20 RESO A CAFETERIA UPGRADE / FY20 RESO A PATH OF TRAVEL CAFETERIA UPGRADE,555000,CIP,K410,2800 OCEAN PARKWAY,Brooklyn,11235,BROOKLYN,40.581681,-73.967308,313,47,3196293,3072540001,354,BK1302,"(40.581681, -73.967308)"
P.S. 142 - MANHATTAN,M,1,EXTERIOR MASONRY / PARAPETS / ROOFS,8640000,CIP,M142,100 ATTORNEY STREET,Manhattan,10002,MANHATTAN,40.718383,-73.984452,103,1,1004080,1003430001,1402,MN0302,"(40.718383, -73.984452)"
YOUNG W. LEADERSHIP SCL ASTORIA- Q,Q,30,CHAPEL ROOM CONVERSION,2842800.5,CIP,Q739,23-15 NEWTOWN AVENUE,Queens,11102,QUEENS,40.771215,-73.924591,401,22,4440035,4005420008,69,QN0103,"(40.771215, -73.924591)"
P.S. 88 - BRONX,X,9,ELECTRICAL WORK FOR A/C INITIATIVE / LL26 CODE COMPLIANCE/EXIT SIGN REPLACEMENT,879000,CIP,X088,1340 SHERIDAN AVENUE,Bronx,10456,BRONX,40.837275,-73.913574,204,16,2094533,2028300017,17902,BX0403,"(40.837275, -73.913574)"
P.S. 160 - BRONX,X,11,FY20 RESO A AUDITORIUM UPGRADE,225795,CIP,X160,4140 HUTCHINSON RIVER PARKWAY EAST,Bronx,10475,BRONX,40.864687,-73.824299,210,12,2072352,2051350200,30201,BX1004,"(40.864687, -73.824299)"
P.S. 173 - MANHATTAN,M,6,EXTERIOR MASONRY / FLOOD ELIMINATION / PARAPETS / PAVED AREAS- CONCRETE / ROOFS,9926550,CIP,M173,306 FORT WASHINGTON AVENUE,Manhattan,10033,MANHATTAN,40.845469,-73.940468,112,10,1063503,1021420154,263,MN1201,"(40.845469, -73.940468)"
I.S. 62 - BROOKLYN,K,20,PLANYC BOILER CONVERSION / PLANYC CLIMATE CONTROL,7422000,CIP,K062,700 CORTELYOU ROAD,Brooklyn,11218,BROOKLYN,40.638686,-73.971651,312,39,3126842,3053910001,490,BK1203,"(40.638686, -73.971651)"
P.S. 207 - BROOKLYN,K,22,ELECTRICAL WORK FOR A/C INITIATIVE,7216,CIP,K207,4011 FILLMORE AVENUE,Brooklyn,11234,BROOKLYN,40.613353,-73.930129,318,46,3239388,3084840001,652,BK1802,"(40.613353, -73.930129)"
PERFORMING ARTS AND TECH. HS - K,K,19,FY14 RESO A GYMNASIUM UPGRADE,1032000,CIP,K435,400 PENNSYLVANIA AVENUE,Brooklyn,11207,BROOKLYN,40.667456,-73.894747,305,42,3084440,3037880001,1156,BK0502,"(40.667456, -73.894747)"
R025 SPED - STATEN ISLAND,R,31,PATH OF TRAVEL WORK FOR R119 LEASED SITE (LLWS 124434 & 126879) / PHASE II RENOVATIONS,2613650,CIP,R119,30 WELLBROOK AVENUE,Staten Island,10314,STATEN IS,40.604824,-74.130782,502,49,5106948,5007700009,18703,SI0203,"(40.604824, -74.130782)"
P.S. 138 - BRONX,X,8,Addition,57799000,CAP,X138,2060 LAFAYETTE AVENUE,Bronx,10473,BRONX,40.822665,-73.853366,209,18,2022289,2036090016,74,BX0903,"(40.822665, -73.853366)"
THE HIGH SCHOOL FOR CLIMATE JUSTICE,M,2,LSP HOT WATER HEATER,74000,CIP,M645,320 EAST 96 STREET,Manhattan,10128,MANHATTAN,40.783625,-73.945637,108,8,1050338,1015580034,15601,MN0803,"(40.783625, -73.945637)"
Q177 SPED - QUEENS,Q,26,PLANYC BOILER CONVERSION / PLANYC CLIMATE CONTROL,7221000,CIP,Q177,56-37 188 STREET,Queens,11365,QUEENS,40.74391,-73.788133,411,20,4128231,4056740002,1417,QN1101,"(40.74391, -73.788133)"
I.S. 171 - BROOKLYN,K,19,EXTERIOR MASONRY,3767000,CIP,K171,528 RIDGEWOOD AVENUE,Brooklyn,11208,BROOKLYN,40.68618,-73.869625,305,37,3092456,3041340020,1184,BK0501,"(40.68618, -73.869625)"
HS FOR ARTS & TECHNOLOGY - M,M,3,AHU REPLACEMENT / CAFETERIA UPGRADE,8995000,CIP,M490,122 AMSTERDAM AVENUE,Manhattan,10023,MANHATTAN,40.774351,-73.984753,107,6,1030343,1011570025,15101,MN0701,"(40.774351, -73.984753)"
P.S. 101 - QUEENS,Q,28,LSP- DOMESTIC WATER HEATER,151075.45,CIP,Q101,2 RUSSELL PLACE,Queens,11375,QUEENS,40.715585,-73.843898,406,29,4078312,4032700001,723,QN0602,"(40.715585, -73.843898)"
P.S. 4 - STATEN ISLAND,R,31,PLANYC BOILER CONVERSION / PLANYC CLIMATE CONTROL,6877000,CIP,R004,200 NEDRA LANE,Staten Island,10312,STATEN IS,40.552975,-74.194597,503,51,5079499,5060250030,17013,SI0303,"(40.552975, -74.194597)"
P.S. 118 - QUEENS,Q,29,LSP DOMESTIC WATER HEATER REPLACEMENT,167718.72,CIP,Q118,190-20 109 ROAD,Queens,11412,QUEENS,40.703585,-73.765838,412,27,4233850,4109260050,504,QN1205,"(40.703585, -73.765838)"
I.S. 221 - BRONX,X,7,LOW-VOLTAGE ELECTRICAL / PLANYC BOILER CONVERSION / PLANYC CLIMATE CONTROL,7564000,CIP,X149,360 EAST 145 STREET,Bronx,10454,BRONX,40.813785,-73.92032,201,8,2097038,2023060054,43,BX0101,"(40.813785, -73.92032)"
P.S. 152 - MANHATTAN,M,6,NYS AUDITORIUM UPGRADE,1457880,CIP,M152,93 NAGLE AVENUE,Manhattan,10040,MANHATTAN,40.860412,-73.927936,112,10,1064149,1021730001,283,MN1202,"(40.860412, -73.927936)"
I.S. 74 - QUEENS,Q,26,IDA GYM FLOOR REPLACEMENT @ Q074,534700,CIP,Q074,61-15 OCEANIA STREET,Queens,11364,QUEENS,40.745201,-73.767446,411,23,4163953,4077230001,1367,QN1104,"(40.745201, -73.767446)"
HS FOR HEALTH PROF & HUMAN SERV-M,M,2,AUDITORIUM UPGRADE / EXTERIOR MASONRY / PARAPETS / PATH OF TRAVEL AUDITORIUM UPGRADE / ROOFS / WINDOWS,27711000,CIP,M475,345 EAST 15 STREET,Manhattan,10003,MANHATTAN,40.732447,-73.983031,106,2,1020419,1009220008,48,MN0602,"(40.732447, -73.983031)"
P.S. 71 - QUEENS,Q,24,COVID FIRE ALARM REPLACEMENT / COVID VENTILATION / FY19 RESO A PA SYSTEM UPGRADE,7965000,CIP,Q071,62-85 FOREST AVENUE,Queens,11385,QUEENS,40.711203,-73.905286,405,30,4083519,4034920007,59501,QN0502,"(40.711203, -73.905286)"
P.S. 175 HENRY H GARNET - M,M,5,CHARTER MATCH AUDITORIUM UPGRADE / PATH OF TRAVEL CHARTER MATCH AUDITORIUM UPGRADE,2285000,CIP,M175,175 WEST 134 STREET,Manhattan,10030,MANHATTAN,40.814422,-73.943664,110,9,1058248,1019190006,228,MN1002,"(40.814422, -73.943664)"
P.S. 76 - BRONX,X,11,AUDITORIUM UPGRADE / PATH OF TRAVEL AUDITORIUM UPGRADE,799650,CIP,X076,900 ADEE AVENUE,Bronx,10469,BRONX,40.869593,-73.861282,211,12,2054933,2045520010,342,BX1104,"(40.869593, -73.861282)"
P.S. 22 - QUEENS,Q,25,TCU REMOVAL/PLAYGROUND REDEVELOPMENT,1219975,CIP,Q022,153-33 SANFORD AVENUE,Queens,11355,QUEENS,40.761249,-73.811808,407,20,4438184,4053280001,1167,QN0704,"(40.761249, -73.811808)"
P.S. 112 - QUEENS,Q,30,FY17 RESO A PLAYGROUND REDEVELOPMENT,1067000,CIP,Q112,25-05 37 AVENUE,Queens,11101,QUEENS,40.756891,-73.934523,401,26,4004170,4003440001,3302,QN0105,"(40.756891, -73.934523)"
P.S. 109 - BRONX,X,9,PAVED AREAS- BLACKTOP,155000,CIP,X109,1771 POPHAM AVENUE,Bronx,10453,BRONX,40.851414,-73.918533,205,14,2094549,2028770393,20502,BX0501,"(40.851414, -73.918533)"
P.S. 277 - BRONX,X,7,EXTERIOR MASONRY / FLOOD ELIMINATION / ROOFS,6996000,CIP,X027,519 ST ANNS AVENUE,Bronx,10455,BRONX,40.813517,-73.913402,201,8,2000114,2022740023,43,BX0101,"(40.813517, -73.913402)"
I.S. 528 - MANHATTAN,M,6,IPDVS INSTALLATIONS,473000,CIP,M528,180 WADSWORTH AVENUE,Manhattan,10033,MANHATTAN,40.85051,-73.934485,112,10,1063928,1021640032,271,MN1202,"(40.85051, -73.934485)"
P.S. 192 - BROOKLYN,K,20,COVID VENTILATION,254750,CIP,K192,4715 18 AVENUE,Brooklyn,11204,BROOKLYN,40.629303,-73.979995,312,44,3128909,3054450001,476,BK1202,"(40.629303, -73.979995)"
P.S. 127 - QUEENS,Q,30,IPDVS INSTALLATIONS,485000,CIP,Q127,98-01 25 AVENUE,Queens,11369,QUEENS,40.764646,-73.871641,403,21,4024487,4011090016,357,QN0302,"(40.764646, -73.871641)"
P.S. 15 - BROOKLYN,K,15,IPDVS CAMERA INSTALLATION,350000,CIP,K015,71 SULLIVAN STREET,Brooklyn,11231,BROOKLYN,40.677343,-74.011558,306,38,3008585,3005660001,5301,BK0601,"(40.677343, -74.011558)"
P.S. 56 - QUEENS,Q,27,LOW VOLTAGE ELECTRICAL SYSTEM,890000,CIP,Q056,86-10 114 STREET,Queens,11418,QUEENS,40.69919,-73.835299,409,29,4192689,4092260057,130,QN0902,"(40.69919, -73.835299)"
FRANCIS LEWIS HS - QUEENS,Q,26,FY20 RESO A ATHLETIC FIELD UPGRADE,10542368,CIP,Q431,58-20 UTOPIA PARKWAY,Queens,11365,QUEENS,40.740724,-73.79283,411,20,4148763,4068820001,1417,QN1101,"(40.740724, -73.79283)"
NEVINS DAY CARE CENTER,K,15,ACS EARLY LEARN LEASE IMPROVEMENT / PATH OF TRAVEL,2220167,CIP,KBGZ,460 ATLANTIC AVENUE,Brooklyn,11217,BROOKLYN,40.686296,-73.983223,302,33,3000937,3001840025,41,BK0202,"(40.686296, -73.983223)"
HS OF COMPUTERS & TECHNOLOGY - X,X,11,ATHLETIC FIELD / FIELD HOUSE,17463000,CIP,X426,774 EAST GUN HILL ROAD,Bronx,10467,BRONX,40.876341,-73.863195,212,12,2057040,2046320050,372,BX1201,"(40.876341, -73.863195)"
P.S. 80 - QUEENS,Q,28,FY22 RESO A AUDITORIUM UPGRADE,382132,CIP,Q080,171-05 137 AVENUE,Queens,11434,QUEENS,40.67282,-73.769252,412,28,4270056,4124950166,33405,QN1204,"(40.67282, -73.769252)"
P.S. 62 - BRONX,X,8,FULL PROGRAM ACCESSIBILITY / WINDOWS,18595000,CIP,X062,660 FOX STREET,Bronx,10455,BRONX,40.814031,-73.900609,202,17,2005089,2026830065,83,BX0202,"(40.814031, -73.900609)"
P.S. 94 - BRONX,X,10,COVID VENTILATION,255320,CIP,X361,268 EAST 211 STREET,Bronx,10467,BRONX,40.881564,-73.8748,207,11,2115241,2033560036,43102,BX0703,"(40.881564, -73.8748)"
P.S. 47 - BRONX,X,12,WALK-IN REFRIGERATORS AND FREEZERS,352000,CIP,X047,1794 EAST 172 STREET,Bronx,10472,BRONX,40.832902,-73.866848,209,18,2025622,2037860016,76,BX0901,"(40.832902, -73.866848)"
P.S. 124 - QUEENS,Q,27,FY21 RESO A ATHLETIC FIELDS,2480000,CIP,Q124,129-15 150 AVENUE,Queens,11420,QUEENS,40.665058,-73.811701,410,28,4257530,4118820001,84602,QN1001,"(40.665058, -73.811701)"
THE HIGH SCHOOL FOR LANGUAGE AND DIPLOMACY,M,2,COVID CLIMATE CONTROL / COVID LOW VOLTAGE ELECTRICAL SYSTEM / COVID VENTILATION,19820000,CIP,M460,40 IRVING PLACE,Manhattan,10003,MANHATTAN,40.735494,-73.987659,106,2,1017828,1008720057,50,MN0602,"(40.735494, -73.987659)"
P.S. 156 - QUEENS,Q,29,FY23 RESO A COMPUTER LAB UPGRADE / PATH OF TRAVEL RESO A COMPUTER LAB UPGRADE,464995,CIP,Q156,229-02 137 AVENUE,Queens,11413,QUEENS,40.673069,-73.743173,413,31,4283015,4131700012,646,QN1305,"(40.673069, -73.743173)"
"HERO HIGH (HEALTH, EDUCATION, AND RESEARCH OCCUPAT",X,7,STH SBHC,2918000,CIP,X655,455 SOUTHERN BOULEVARD,Bronx,10455,BRONX,40.810803,-73.907015,201,8,2003883,2025760026,35,BX0101,"(40.810803, -73.907015)"
P.S. 88 - QUEENS,Q,24,PLANYC PLAYGROUND REDEVELOPMENT,1746800,CIP,Q088,60-85 CATALPA AVENUE,Queens,11385,QUEENS,40.703779,-73.896374,405,30,4085173,4035340012,585,QN0502,"(40.703779, -73.896374)"
I.S. 131 - BRONX,X,8,FY19 RESO A AUDITORIUM UPGRADE,389000,CIP,X131,885 BOLTON AVENUE,Bronx,10473,BRONX,40.82346,-73.859647,209,18,2103869,2036440001,42,BX0902,"(40.82346, -73.859647)"
I.S. 118 - BRONX,X,10,FY19 RESO A SUPPLEMENTAL COOLING,684000,CIP,X118,577 EAST 179 STREET,Bronx,10457,BRONX,40.848339,-73.89308,206,15,2011995,2030690001,37504,BX0602,"(40.848339, -73.89308)"
P.S. 126 - MANHATTAN,M,2,EXTERIOR MASONRY / PARAPETS / ROOFS / WINDOWS,26926890,CIP,M126,80 CATHERINE STREET,Manhattan,10038,MANHATTAN,40.710729,-73.996631,103,1,1083357,1001110160,25,MN0301,"(40.710729, -73.996631)"
P.S. 47 - BRONX,X,12,FULL PROGRAM ACCESSIBILITY / LOW-VOLTAGE ELECTRICAL SYSTEM,12720000,CIP,X047,1794 EAST 172 STREET,Bronx,10472,BRONX,40.832902,-73.866848,209,18,2025622,2037860016,76,BX0901,"(40.832902, -73.866848)"
I.S. 448 - BROOKLYN,K,15,LSP FY23 RESO A GYMNASIUM UPGRADE,240000,CIP,K142,610 HENRY STREET,Brooklyn,11231,BROOKLYN,40.68007,-74.001377,306,39,3336036,3003690001,63,BK0601,"(40.68007, -74.001377)"
P.S. 26 - STATEN ISLAND,R,31,ELECTRICAL WORK FOR A/C INITIATIVE,3146.56,CIP,R026,4108 VICTORY BOULEVARD,Staten Island,10314,STATEN IS,40.591702,-74.190648,502,50,5107386,5026340001,29102,SI0204,"(40.591702, -74.190648)"
P.S. 140 - QUEENS,Q,28,LSP- DOMESTIC HOT WATER HEATER,271744.76,CIP,Q140,166-01 116 AVENUE,Queens,11434,QUEENS,40.686798,-73.781247,412,28,4267260,4123410031,278,QN1203,"(40.686798, -73.781247)"
D75 SCHOOL @ 1514 72 STREET - BROOKLYN,K,20,Lease,11603878,CAP,K464,1514 72 STREET,Brooklyn,11228,BROOKLYN,40.619061,-74.000753,311,38,3383724,3061910001,190,BK1101,"(40.619061, -74.000753)"
I.S. 71 - BROOKLYN,K,14,WATER INFILTRATION,1499000,CIP,K071,215 HEYWARD STREET,Brooklyn,11206,BROOKLYN,40.703624,-73.953146,301,33,3061064,3022270001,529,BK0103,"(40.703624, -73.953146)"
P.S. 67 - BRONX,X,12,AUDITORIUM SEATING / PATH OF TRAVEL AUDITORIUM SEATING,684360,CIP,X067,2024 MOHEGAN AVENUE,Bronx,10460,BRONX,40.843945,-73.884788,206,15,2013142,2031230003,363,BX0601,"(40.843945, -73.884788)"
P.S. 7 - QUEENS,Q,24,LSP- DOMESTIC WATER HEATER,13607.82,CIP,Q007,80-55 CORNISH AVENUE,Queens,11373,QUEENS,40.739115,-73.882487,404,25,4467710,4015380075,485,QN0401,"(40.739115, -73.882487)"
